time,pos_x,pos_y,pos_z,vel_x,vel_y,vel_z,att_phi,att_theta,att_psi,rate_p,rate_q,rate_r,Optical flow difference,Estimated divergence,cmd_thrust,cmd_roll,cmd_pitch,cmd_yaw
119.561356,-0.102373,-0.002968,-0.034797,-0.005645,-0.000024,0.037326,0.000000,0.000732,-0.001221,-0.000194,0.234080,-0.000061,174.459993,13.950078,0,0,0,0
119.571121,-0.102381,-0.002969,-0.034797,-0.005645,-0.000024,0.037326,0.000000,0.000732,-0.001221,-0.000194,0.234080,-0.000061,174.459993,13.950078,0,0,0,0
119.580894,-0.102390,-0.002969,-0.034797,-0.005645,-0.000024,0.037326,0.000000,0.000732,-0.001221,-0.000194,0.234080,-0.000061,174.459993,13.950078,0,0,0,0
119.590660,-0.102398,-0.002969,-0.034797,-0.005645,-0.000024,0.037326,0.000000,0.000732,-0.001221,-0.000194,0.234080,-0.000061,174.459993,13.950078,0,0,0,0
119.600433,-0.102406,-0.002969,-0.034797,-0.005645,-0.000024,0.037326,0.000000,0.000732,-0.001221,-0.000194,0.234080,-0.000061,174.459993,13.950078,0,0,0,0
119.610199,-0.102415,-0.002970,-0.034797,-0.005645,-0.000024,0.037326,0.000000,0.000732,-0.001221,-0.000194,0.234080,-0.000061,174.459993,13.950078,0,0,0,0
119.619972,-0.102423,-0.002970,-0.034797,-0.005645,-0.000024,0.037326,0.000000,0.000732,-0.001221,-0.000194,0.234080,-0.000061,174.459993,13.950078,0,0,0,0
119.629745,-0.102431,-0.002970,-0.034797,-0.005645,-0.000024,0.037326,0.000000,0.000732,-0.001221,-0.000194,0.234080,-0.000061,582.904818,38.971027,0,0,0,0
119.639511,-0.102440,-0.002971,-0.034797,-0.005645,-0.000024,0.037326,0.000000,0.000732,-0.001221,-0.000194,0.234080,-0.000061,582.904818,38.971027,0,0,0,0
119.649284,-0.102448,-0.002971,-0.034797,-0.005645,-0.000024,0.037326,0.000000,0.000732,-0.001221,-0.000194,0.234080,-0.000061,582.904818,38.971027,0,0,0,0
119.659050,-0.102457,-0.002971,-0.034797,-0.005645,-0.000024,0.037326,0.000000,0.000732,-0.001221,-0.000194,0.234080,-0.000061,582.904818,38.971027,0,0,0,0
119.668823,-0.102465,-0.002971,-0.034797,-0.005645,-0.000024,0.037326,0.000000,0.000732,-0.001221,-0.000194,0.234080,-0.000061,582.904818,38.971027,0,0,0,0
119.678589,-0.102473,-0.002972,-0.034797,-0.005645,-0.000024,0.037326,0.000000,0.000732,-0.001221,-0.000194,0.234080,-0.000061,582.904818,38.971027,0,0,0,0
119.688362,-0.102482,-0.002972,-0.034797,-0.005645,-0.000024,0.037326,0.000000,0.000732,-0.001221,-0.000194,0.234080,-0.000061,582.904818,38.971027,0,0,0,0
119.698135,-0.102490,-0.002972,-0.034797,-0.005645,-0.000024,0.037326,0.000000,0.000732,-0.001221,-0.000194,0.234080,-0.000061,582.904818,38.971027,0,0,0,0
119.707901,-0.102498,-0.002972,-0.034797,-0.005645,-0.000024,0.037326,0.000000,0.000732,-0.001221,-0.000194,0.234080,-0.000061,582.904818,38.971027,0,0,0,0
119.717674,-0.102507,-0.002973,-0.034797,-0.005645,-0.000024,0.037326,0.000000,0.000732,-0.001221,-0.000194,0.234080,-0.000061,582.904818,38.971027,0,0,0,0
119.727440,-0.102515,-0.002973,-0.034797,-0.005645,-0.000024,0.037326,0.000000,0.000732,-0.001221,-0.000194,0.234080,-0.000061,582.904818,38.971027,0,0,0,0
119.737213,-0.102524,-0.002973,-0.034797,-0.005645,-0.000024,0.037326,0.000000,0.000732,-0.001221,-0.000194,0.234080,-0.000061,582.904818,38.971027,0,0,0,0
119.746979,-0.102532,-0.002973,-0.034797,-0.005645,-0.000024,0.037326,0.000000,0.000732,-0.001221,-0.000194,0.234080,-0.000061,582.904818,38.971027,0,0,0,0
119.756752,-0.102540,-0.002974,-0.034797,-0.005645,-0.000024,0.037326,0.000000,0.000732,-0.001221,-0.000194,0.234080,-0.000061,131.955357,-6.599293,0,0,0,0
119.766525,-0.102549,-0.002974,-0.034797,-0.005645,-0.000024,0.037326,0.000000,0.000732,-0.001221,-0.000194,0.234080,-0.000061,131.955357,-6.599293,0,0,0,0
119.776291,-0.102557,-0.002974,-0.034797,-0.005645,-0.000024,0.037326,0.000000,0.000732,-0.001221,-0.000194,0.234080,-0.000061,131.955357,-6.599293,0,0,0,0
119.786064,-0.102565,-0.002974,-0.034797,-0.005645,-0.000024,0.037326,0.000000,0.000732,-0.001221,-0.000194,0.234080,-0.000061,131.955357,-6.599293,0,0,0,0
119.795830,-0.102574,-0.002975,-0.034797,-0.005645,-0.000024,0.037326,0.000000,0.000732,-0.001221,-0.000194,0.234080,-0.000061,131.955357,-6.599293,0,0,0,0
119.805603,-0.102582,-0.002975,-0.034797,-0.005645,-0.000024,0.037326,0.000000,0.000732,-0.001221,-0.000194,0.234080,-0.000061,131.955357,-6.599293,0,0,0,0
119.815369,-0.102591,-0.002975,-0.034797,-0.005645,-0.000024,0.037326,0.000000,0.000732,-0.001221,-0.000194,0.234080,-0.000061,131.955357,-6.599293,0,0,0,0
119.825142,-0.102599,-0.002975,-0.034797,-0.005645,-0.000024,0.037326,0.000000,0.000732,-0.001221,-0.000194,0.234080,-0.000061,822.749634,11.223349,0,0,0,0
119.834915,-0.102607,-0.002976,-0.034797,-0.005645,-0.000024,0.037326,0.000000,0.000732,-0.001221,-0.000194,0.234080,-0.000061,822.749634,11.223349,0,0,0,0
119.844681,-0.102616,-0.002976,-0.034797,-0.005645,-0.000024,0.037326,0.000000,0.000732,-0.001221,-0.000194,0.234080,-0.000061,822.749634,11.223349,0,0,0,0
119.854454,-0.102624,-0.002976,-0.034797,-0.005645,-0.000024,0.037326,0.000000,0.000732,-0.001221,-0.000194,0.234080,-0.000061,822.749634,11.223349,0,0,0,0
119.864220,-0.102632,-0.002977,-0.034797,-0.005645,-0.000024,0.037326,0.000000,0.000732,-0.001221,-0.000194,0.234080,-0.000061,822.749634,11.223349,0,0,0,0
119.873993,-0.102641,-0.002977,-0.034797,-0.005645,-0.000024,0.037326,0.000000,0.000732,-0.001221,-0.000194,0.234080,-0.000061,822.749634,11.223349,0,0,0,0
119.883759,-0.102649,-0.002977,-0.034797,-0.005645,-0.000024,0.037326,0.000000,0.000732,-0.001221,-0.000194,0.234080,-0.000061,822.749634,11.223349,0,0,0,0
119.893532,-0.102658,-0.002977,-0.034797,-0.005645,-0.000024,0.037326,0.000000,0.000732,-0.001221,-0.000194,0.234080,-0.000061,822.749634,11.223349,0,0,0,0
119.903305,-0.102666,-0.002978,-0.034797,-0.005645,-0.000024,0.037326,0.000000,0.000732,-0.001221,-0.000194,0.234080,-0.000061,822.749634,11.223349,0,0,0,0
119.913071,-0.102674,-0.002978,-0.034797,-0.005645,-0.000024,0.037326,0.000000,0.000732,-0.001221,-0.000194,0.234080,-0.000061,822.749634,11.223349,0,0,0,0
119.922844,-0.102683,-0.002978,-0.034797,-0.005645,-0.000024,0.037326,0.000000,0.000732,-0.001221,-0.000194,0.234080,-0.000061,822.749634,11.223349,0,0,0,0
119.932610,-0.102691,-0.002978,-0.034797,-0.005645,-0.000024,0.037326,0.000000,0.000732,-0.001221,-0.000194,0.234080,-0.000061,822.749634,11.223349,0,0,0,0
119.942383,-0.102699,-0.002979,-0.034797,-0.005645,-0.000024,0.037326,0.000000,0.000732,-0.001221,-0.000194,0.234080,-0.000061,822.749634,11.223349,0,0,0,0
119.952148,-0.102708,-0.002979,-0.034797,-0.005645,-0.000024,0.037326,0.000000,0.000732,-0.001221,-0.000194,0.234080,-0.000061,822.749634,11.223349,0,0,0,0
119.961922,-0.102716,-0.002979,-0.034797,-0.005645,-0.000024,0.037326,0.000000,0.000732,-0.001221,-0.000194,0.234080,-0.000061,127.551137,5.303786,0,0,0,0
119.971695,-0.102725,-0.002979,-0.034797,-0.005645,-0.000024,0.037326,0.000000,0.000732,-0.001221,-0.000194,0.234080,-0.000061,127.551137,5.303786,0,0,0,0
119.981461,-0.102733,-0.002980,-0.034797,-0.005645,-0.000024,0.037326,0.000000,0.000732,-0.001221,-0.000194,0.234080,-0.000061,127.551137,5.303786,0,0,0,0
119.991234,-0.102741,-0.002980,-0.034797,-0.005645,-0.000024,0.037326,0.000000,0.000732,-0.001465,-0.000194,0.234080,-0.000061,127.551137,5.303786,0,0,0,0
120.000999,-0.102750,-0.002980,-0.034797,-0.005645,-0.000024,0.037326,0.000000,0.000732,-0.001465,-0.000194,0.234080,-0.000061,127.551137,5.303786,0,0,0,0
120.010773,-0.102758,-0.002980,-0.034797,-0.005645,-0.000024,0.037326,0.000000,0.000732,-0.001465,-0.000194,0.234080,-0.000061,127.551137,5.303786,0,0,0,0
120.020538,-0.102766,-0.002981,-0.034797,-0.005645,-0.000024,0.037326,0.000000,0.000732,-0.001465,-0.000194,0.234080,-0.000061,110.700278,11.075145,0,0,0,0
120.030312,-0.102775,-0.002981,-0.034797,-0.005645,-0.000024,0.037326,0.000000,0.000732,-0.001465,-0.000194,0.234080,-0.000061,110.700278,11.075145,0,0,0,0
120.040085,-0.102783,-0.002981,-0.034797,-0.005645,-0.000024,0.037326,0.000000,0.000732,-0.001465,-0.000194,0.234080,-0.000061,110.700278,11.075145,0,0,0,0
120.049850,-0.102792,-0.002982,-0.034797,-0.005645,-0.000024,0.037326,0.000000,0.000732,-0.001465,-0.000194,0.234080,-0.000061,110.700278,11.075145,0,0,0,0
120.059624,-0.102800,-0.002982,-0.034797,-0.005645,-0.000024,0.037326,0.000000,0.000732,-0.001465,-0.000194,0.234080,-0.000061,110.700278,11.075145,0,0,0,0
120.069389,-0.102808,-0.002982,-0.034797,-0.005645,-0.000024,0.037326,0.000000,0.000732,-0.001465,-0.000194,0.234080,-0.000061,110.700278,11.075145,0,0,0,0
120.079163,-0.102817,-0.002982,-0.034797,-0.005645,-0.000024,0.037326,0.000000,0.000732,-0.001465,-0.000194,0.234080,-0.000061,110.700278,11.075145,0,0,0,0
120.088928,-0.102825,-0.002983,-0.034797,-0.005645,-0.000024,0.037326,0.000000,0.000732,-0.001465,-0.000194,0.234080,-0.000061,110.700278,11.075145,0,0,0,0
120.098701,-0.102833,-0.002983,-0.034797,-0.005645,-0.000024,0.037326,0.000000,0.000732,-0.001465,-0.000194,0.234080,-0.000061,110.700278,11.075145,0,0,0,0
120.108475,-0.102842,-0.002983,-0.034797,-0.005645,-0.000024,0.037326,0.000000,0.000732,-0.001465,-0.000194,0.234080,-0.000061,110.700278,11.075145,0,0,0,0
120.118240,-0.102850,-0.002983,-0.034797,-0.005645,-0.000024,0.037326,0.000000,0.000732,-0.001465,-0.000194,0.234080,-0.000061,110.700278,11.075145,0,0,0,0
120.128014,-0.102859,-0.002984,-0.034797,-0.005645,-0.000024,0.037326,0.000000,0.000732,-0.001465,-0.000194,0.234080,-0.000061,110.700278,11.075145,0,0,0,0
120.137779,-0.102867,-0.002984,-0.034797,-0.005645,-0.000024,0.037326,0.000000,0.000732,-0.001465,-0.000194,0.234080,-0.000061,110.700278,11.075145,0,0,0,0
120.147552,-0.102875,-0.002984,-0.034797,-0.005645,-0.000024,0.037326,0.000000,0.000732,-0.001465,-0.000194,0.234080,-0.000061,110.700278,11.075145,0,0,0,0
120.157326,-0.102884,-0.002984,-0.034797,-0.005645,-0.000024,0.037326,0.000000,0.000732,-0.001465,-0.000194,0.234080,-0.000061,23.869783,-7.813927,0,0,0,0
120.167091,-0.102892,-0.002985,-0.034797,-0.005645,-0.000024,0.037326,0.000000,0.000732,-0.001465,-0.000194,0.234080,-0.000061,23.869783,-7.813927,0,0,0,0
120.176865,-0.102900,-0.002985,-0.034797,-0.005645,-0.000024,0.037326,0.000000,0.000732,-0.001465,-0.000194,0.234080,-0.000061,23.869783,-7.813927,0,0,0,0
120.186630,-0.102909,-0.002985,-0.034797,-0.005645,-0.000024,0.037326,0.000000,0.000732,-0.001465,-0.000194,0.234080,-0.000061,23.869783,-7.813927,0,0,0,0
120.196404,-0.102917,-0.002985,-0.034797,-0.005645,-0.000024,0.037326,0.000000,0.000732,-0.001465,-0.000194,0.234080,-0.000061,23.869783,-7.813927,0,0,0,0
120.206169,-0.102926,-0.002986,-0.034797,-0.005645,-0.000024,0.037326,0.000000,0.000732,-0.001465,-0.000194,0.234080,-0.000061,23.869783,-7.813927,0,0,0,0
120.215942,-0.102934,-0.002986,-0.034797,-0.005645,-0.000024,0.037326,0.000000,0.000732,-0.001465,-0.000194,0.234080,-0.000061,23.869783,-7.813927,0,0,0,0
120.225716,-0.102942,-0.002986,-0.034797,-0.005645,-0.000024,0.037326,0.000000,0.000732,-0.001465,-0.000194,0.234080,-0.000061,502.106745,31.963358,0,0,0,0
120.235481,-0.102951,-0.002986,-0.034797,-0.005645,-0.000024,0.037326,0.000000,0.000732,-0.001465,-0.000194,0.234080,-0.000061,502.106745,31.963358,0,0,0,0
120.245255,-0.102959,-0.002987,-0.034797,-0.005645,-0.000024,0.037326,0.000000,0.000732,-0.001465,-0.000194,0.234080,-0.000061,502.106745,31.963358,0,0,0,0
120.255020,-0.102967,-0.002987,-0.034797,-0.005645,-0.000024,0.037326,0.000000,0.000732,-0.001465,-0.000194,0.234080,-0.000061,502.106745,31.963358,0,0,0,0
120.264793,-0.102976,-0.002987,-0.034797,-0.005645,-0.000024,0.037326,0.000000,0.000732,-0.001465,-0.000194,0.234080,-0.000061,502.106745,31.963358,0,0,0,0
120.274559,-0.102984,-0.002988,-0.034797,-0.005645,-0.000024,0.037326,0.000000,0.000732,-0.001465,-0.000194,0.234080,-0.000061,502.106745,31.963358,0,0,0,0
120.284332,-0.102992,-0.002988,-0.034797,-0.005645,-0.000024,0.037326,0.000000,0.000732,-0.001465,-0.000194,0.234080,-0.000061,502.106745,31.963358,0,0,0,0
120.294106,-0.103001,-0.002988,-0.034797,-0.005645,-0.000024,0.037326,0.000000,0.000732,-0.001465,-0.000194,0.234080,-0.000061,502.106745,31.963358,0,0,0,0
120.303871,-0.103009,-0.002988,-0.034797,-0.005645,-0.000024,0.037326,0.000000,0.000732,-0.001465,-0.000194,0.234080,-0.000061,502.106745,31.963358,0,0,0,0
120.313644,-0.103018,-0.002989,-0.034797,-0.005645,-0.000024,0.037326,0.000000,0.000732,-0.001465,-0.000194,0.234080,-0.000061,502.106745,31.963358,0,0,0,0
120.323410,-0.103026,-0.002989,-0.034797,-0.005645,-0.000024,0.037326,0.000000,0.000732,-0.001465,-0.000194,0.234080,-0.000061,502.106745,31.963358,0,0,0,0
120.333183,-0.103034,-0.002989,-0.034797,-0.005645,-0.000024,0.037326,0.000000,0.000732,-0.001465,-0.000194,0.234080,-0.000061,502.106745,31.963358,0,0,0,0
120.342949,-0.103043,-0.002989,-0.034797,-0.005645,-0.000024,0.037326,0.000000,0.000732,-0.001465,-0.000194,0.234080,-0.000061,502.106745,31.963358,0,0,0,0
120.352722,-0.103051,-0.002990,-0.034797,-0.005645,-0.000024,0.037326,0.000000,0.000732,-0.001465,-0.000194,0.234080,-0.000061,502.106745,31.963358,0,0,0,0
120.362495,-0.103059,-0.002990,-0.034797,-0.005645,-0.000024,0.037326,0.000000,0.000732,-0.001465,-0.000194,0.234080,-0.000061,897.817602,1.972466,0,0,0,0
120.372261,-0.103068,-0.002990,-0.034797,-0.005645,-0.000024,0.037326,0.000000,0.000732,-0.001465,-0.000194,0.234080,-0.000061,897.817602,1.972466,0,0,0,0
120.382034,-0.103076,-0.002990,-0.034797,-0.005645,-0.000024,0.037326,0.000000,0.000732,-0.001465,-0.000194,0.234080,-0.000061,897.817602,1.972466,0,0,0,0
120.391800,-0.103085,-0.002991,-0.034797,-0.005645,-0.000024,0.037326,0.000000,0.000732,-0.001465,-0.000194,0.234080,-0.000061,897.817602,1.972466,0,0,0,0
120.401573,-0.103093,-0.002991,-0.034797,-0.005645,-0.000024,0.037326,0.000000,0.000732,-0.001465,-0.000194,0.234080,-0.000061,897.817602,1.972466,0,0,0,0
120.411339,-0.103101,-0.002991,-0.034797,-0.005645,-0.000024,0.037326,0.000000,0.000732,-0.001465,-0.000194,0.234080,-0.000061,897.817602,1.972466,0,0,0,0
120.421112,-0.103110,-0.002991,-0.034797,-0.005645,-0.000024,0.037326,0.000000,0.000732,-0.001465,-0.000194,0.234080,-0.000061,897.817602,1.972466,0,0,0,0
120.430885,-0.103118,-0.002992,-0.034797,-0.005645,-0.000024,0.037326,0.000000,0.000732,-0.001465,-0.000194,0.234080,-0.000061,475.700403,1.943273,0,0,0,0
120.440651,-0.103126,-0.002992,-0.034797,-0.005645,-0.000024,0.037326,0.000000,0.000732,-0.001465,-0.000194,0.234080,-0.000061,475.700403,1.943273,0,0,0,0
120.450424,-0.103135,-0.002992,-0.034797,-0.005645,-0.000024,0.037326,0.000000,0.000732,-0.001465,-0.000194,0.234080,-0.000061,475.700403,1.943273,0,0,0,0
120.460190,-0.103143,-0.002993,-0.034797,-0.005645,-0.000024,0.037326,0.000000,0.000732,-0.001465,-0.000194,0.234080,-0.000061,475.700403,1.943273,0,0,0,0
120.469963,-0.103152,-0.002993,-0.034797,-0.005645,-0.000024,0.037326,0.000000,0.000732,-0.001465,-0.000194,0.234080,-0.000061,475.700403,1.943273,0,0,0,0
120.479729,-0.103160,-0.002993,-0.034797,-0.005645,-0.000024,0.037326,0.000000,0.000732,-0.001465,-0.000194,0.234080,-0.000061,475.700403,1.943273,0,0,0,0
120.489502,-0.103168,-0.002993,-0.034797,-0.005645,-0.000024,0.037326,0.000000,0.000732,-0.001465,-0.000194,0.234080,-0.000061,475.700403,1.943273,0,0,0,0
120.499275,-0.103177,-0.002994,-0.034797,-0.005645,-0.000024,0.037326,0.000000,0.000732,-0.001465,-0.000194,0.234080,-0.000061,475.700403,1.943273,0,0,0,0
120.509041,-0.103185,-0.002994,-0.034797,-0.005645,-0.000024,0.037326,0.000000,0.000732,-0.001465,-0.000194,0.234080,-0.000061,475.700403,1.943273,0,0,0,0
120.518814,-0.103193,-0.002994,-0.034797,-0.005645,-0.000024,0.037326,0.000000,0.000732,-0.001465,-0.000194,0.234080,-0.000061,475.700403,1.943273,0,0,0,0
120.528580,-0.103202,-0.002994,-0.034797,-0.005645,-0.000024,0.037326,0.000000,0.000732,-0.001465,-0.000194,0.234080,-0.000061,475.700403,1.943273,0,0,0,0
120.538353,-0.103210,-0.002995,-0.034797,-0.005645,-0.000024,0.037326,0.000000,0.000732,-0.001465,-0.000194,0.234080,-0.000061,475.700403,1.943273,0,0,0,0
120.548119,-0.103219,-0.002995,-0.034797,-0.005645,-0.000024,0.037326,0.000000,0.000732,-0.001465,-0.000194,0.234080,-0.000061,475.700403,1.943273,0,0,0,0
120.557892,-0.103227,-0.002995,-0.034797,-0.005645,-0.000024,0.037326,0.000000,0.000732,-0.001465,-0.000194,0.234080,-0.000061,170.388736,13.976207,0,0,0,0
120.567665,-0.103235,-0.002995,-0.034797,-0.005645,-0.000024,0.037326,0.000000,0.000732,-0.001465,-0.000194,0.234080,-0.000061,170.388736,13.976207,0,0,0,0
120.577431,-0.103244,-0.002996,-0.034797,-0.005645,-0.000024,0.037326,0.000000,0.000732,-0.001465,-0.000194,0.234080,-0.000061,170.388736,13.976207,0,0,0,0
120.587204,-0.103252,-0.002996,-0.034797,-0.005645,-0.000024,0.037326,0.000000,0.000732,-0.001465,-0.000194,0.234080,-0.000061,170.388736,13.976207,0,0,0,0
120.596970,-0.103260,-0.002996,-0.034797,-0.005645,-0.000024,0.037326,0.000000,0.000732,-0.001465,-0.000194,0.234080,-0.000061,170.388736,13.976207,0,0,0,0
120.606743,-0.103269,-0.002996,-0.034797,-0.005645,-0.000024,0.037326,0.000000,0.000732,-0.001465,-0.000194,0.234080,-0.000061,170.388736,13.976207,0,0,0,0
120.616508,-0.103277,-0.002997,-0.034797,-0.005645,-0.000024,0.037326,0.000000,0.000732,-0.001465,-0.000194,0.234080,-0.000061,170.388736,13.976207,0,0,0,0
120.626282,-0.103286,-0.002997,-0.034797,-0.005645,-0.000024,0.037326,0.000000,0.000732,-0.001465,-0.000194,0.234080,-0.000061,87.696639,12.277236,0,0,0,0
120.636055,-0.103294,-0.002997,-0.034797,-0.005645,-0.000024,0.037326,0.000000,0.000732,-0.001465,-0.000194,0.234080,-0.000061,87.696639,12.277236,0,0,0,0
120.645821,-0.103302,-0.002997,-0.034797,-0.005645,-0.000024,0.037326,0.000000,0.000732,-0.001465,-0.000194,0.234080,-0.000061,87.696639,12.277236,0,0,0,0
120.655594,-0.103311,-0.002998,-0.034797,-0.005645,-0.000024,0.037326,0.000000,0.000732,-0.001465,-0.000194,0.234080,-0.000061,87.696639,12.277236,0,0,0,0
120.665359,-0.103319,-0.002998,-0.034797,-0.005645,-0.000024,0.037326,0.000000,0.000732,-0.001465,-0.000194,0.234080,-0.000061,87.696639,12.277236,0,0,0,0
120.675133,-0.103327,-0.002998,-0.034797,-0.005645,-0.000024,0.037326,0.000000,0.000732,-0.001465,-0.000194,0.234080,-0.000061,87.696639,12.277236,0,0,0,0
120.684898,-0.103336,-0.002999,-0.034797,-0.005645,-0.000024,0.037326,0.000000,0.000732,-0.001465,-0.000194,0.234080,-0.000061,87.696639,12.277236,0,0,0,0
120.694672,-0.103344,-0.002999,-0.034797,-0.005645,-0.000024,0.037326,0.000000,0.000732,-0.001465,-0.000194,0.234080,-0.000061,87.696639,12.277236,0,0,0,0
120.704445,-0.103353,-0.002999,-0.034797,-0.005645,-0.000024,0.037326,0.000000,0.000732,-0.001465,-0.000194,0.234080,-0.000061,87.696639,12.277236,0,0,0,0
120.714211,-0.103361,-0.002999,-0.034797,-0.005645,-0.000024,0.037326,0.000000,0.000732,-0.001465,-0.000194,0.234080,-0.000061,87.696639,12.277236,0,0,0,0
120.723984,-0.103369,-0.003000,-0.034797,-0.005645,-0.000024,0.037326,0.000000,0.000732,-0.001465,-0.000194,0.234080,-0.000061,87.696639,12.277236,0,0,0,0
120.733749,-0.103378,-0.003000,-0.034797,-0.005645,-0.000024,0.037326,0.000000,0.000732,-0.001465,-0.000194,0.234080,-0.000061,87.696639,12.277236,0,0,0,0
120.743523,-0.103386,-0.003000,-0.034797,-0.005645,-0.000024,0.037326,0.000000,0.000732,-0.001465,-0.000194,0.234080,-0.000061,87.696639,12.277236,0,0,0,0
120.753288,-0.103394,-0.003000,-0.034797,-0.005645,-0.000024,0.037326,0.000000,0.000732,-0.001465,-0.000194,0.234080,-0.000061,87.696639,12.277236,0,0,0,0
120.763062,-0.103403,-0.003001,-0.034797,-0.005645,-0.000024,0.037326,0.000000,0.000732,-0.001465,-0.000194,0.234080,-0.000061,86.234399,0.005862,0,0,0,0
120.772835,-0.103411,-0.003001,-0.034797,-0.005645,-0.000024,0.037326,0.000000,0.000732,-0.001465,-0.000194,0.234080,-0.000061,86.234399,0.005862,0,0,0,0
120.782600,-0.103420,-0.003001,-0.034797,-0.005645,-0.000024,0.037326,0.000000,0.000732,-0.001465,-0.000194,0.234080,-0.000061,86.234399,0.005862,0,0,0,0
120.792374,-0.103428,-0.003001,-0.034797,-0.005645,-0.000024,0.037326,0.000000,0.000732,-0.001465,-0.000194,0.234080,-0.000061,86.234399,0.005862,0,0,0,0
120.802139,-0.103436,-0.003002,-0.034797,-0.005645,-0.000024,0.037326,0.000000,0.000732,-0.001465,-0.000194,0.234080,-0.000061,86.234399,0.005862,0,0,0,0
120.811913,-0.103445,-0.003002,-0.034797,-0.005645,-0.000024,0.037326,0.000000,0.000732,-0.001465,-0.000194,0.234080,-0.000061,86.234399,0.005862,0,0,0,0
120.821686,-0.103453,-0.003002,-0.034797,-0.005645,-0.000024,0.037326,0.000000,0.000732,-0.001465,-0.000194,0.234080,-0.000061,223.329282,5.296418,0,0,0,0
120.831451,-0.103461,-0.003002,-0.034797,-0.005645,-0.000024,0.037326,0.000000,0.000732,-0.001465,-0.000194,0.234080,-0.000061,223.329282,5.296418,0,0,0,0
120.841225,-0.103470,-0.003003,-0.034797,-0.005645,-0.000024,0.037326,0.000000,0.000732,-0.001465,-0.000194,0.234080,-0.000061,223.329282,5.296418,0,0,0,0
120.850990,-0.103478,-0.003003,-0.034797,-0.005645,-0.000024,0.037326,0.000000,0.000732,-0.001465,-0.000194,0.234080,-0.000061,223.329282,5.296418,0,0,0,0
120.860764,-0.103487,-0.003003,-0.034797,-0.005645,-0.000024,0.037326,0.000000,0.000732,-0.001465,-0.000194,0.234080,-0.000061,223.329282,5.296418,0,0,0,0
120.870529,-0.103495,-0.003004,-0.034797,-0.005645,-0.000024,0.037326,0.000000,0.000732,-0.001465,-0.000194,0.234080,-0.000061,223.329282,5.296418,0,0,0,0
120.880302,-0.103503,-0.003004,-0.034797,-0.005645,-0.000024,0.037326,0.000000,0.000732,-0.001465,-0.000194,0.234080,-0.000061,223.329282,5.296418,0,0,0,0
120.890076,-0.103512,-0.003004,-0.034797,-0.005645,-0.000024,0.037326,0.000000,0.000732,-0.001465,-0.000194,0.234080,-0.000061,223.329282,5.296418,0,0,0,0
120.899841,-0.103520,-0.003004,-0.034797,-0.005645,-0.000024,0.037326,0.000000,0.000732,-0.001465,-0.000194,0.234080,-0.000061,223.329282,5.296418,0,0,0,0
120.909615,-0.103528,-0.003005,-0.034797,-0.005645,-0.000024,0.037326,0.000000,0.000732,-0.001465,-0.000194,0.234080,-0.000061,223.329282,5.296418,0,0,0,0
120.919380,-0.103537,-0.003005,-0.034797,-0.005645,-0.000024,0.037326,0.000000,0.000732,-0.001465,-0.000194,0.234080,-0.000061,223.329282,5.296418,0,0,0,0
120.929153,-0.103545,-0.003005,-0.034797,-0.005645,-0.000024,0.037326,0.000000,0.000732,-0.001465,-0.000194,0.234080,-0.000061,223.329282,5.296418,0,0,0,0
120.938919,-0.103554,-0.003005,-0.034797,-0.005645,-0.000024,0.037326,0.000000,0.000732,-0.001465,-0.000194,0.234080,-0.000061,223.329282,5.296418,0,0,0,0
120.948692,-0.103562,-0.003006,-0.034797,-0.005645,-0.000024,0.037326,0.000000,0.000732,-0.001465,-0.000194,0.234080,-0.000061,223.329282,5.296418,0,0,0,0
120.958466,-0.103570,-0.003006,-0.034797,-0.005645,-0.000024,0.037326,0.000000,0.000732,-0.001465,-0.000194,0.234080,-0.000061,595.944701,4.553522,0,0,0,0
120.968231,-0.103579,-0.003006,-0.034797,-0.005645,-0.000024,0.037326,0.000000,0.000732,-0.001465,-0.000194,0.234080,-0.000061,595.944701,4.553522,0,0,0,0
120.978004,-0.103587,-0.003006,-0.034797,-0.005645,-0.000024,0.037326,0.000000,0.000732,-0.001465,-0.000194,0.234080,-0.000061,595.944701,4.553522,0,0,0,0
120.987770,-0.103595,-0.003007,-0.034797,-0.005645,-0.000024,0.037326,0.000000,0.000732,-0.001465,-0.000194,0.234080,-0.000061,595.944701,4.553522,0,0,0,0
120.997543,-0.103604,-0.003007,-0.034797,-0.005645,-0.000024,0.037326,0.000000,0.000732,-0.001465,-0.000194,0.234080,-0.000061,595.944701,4.553522,0,0,0,0
121.007309,-0.103612,-0.003007,-0.034797,-0.005645,-0.000024,0.037326,0.000000,0.000732,-0.001465,-0.000194,0.234080,-0.000061,595.944701,4.553522,0,0,0,0
121.017082,-0.103621,-0.003007,-0.034797,-0.005645,-0.000024,0.037326,0.000000,0.000732,-0.001465,-0.000194,0.234080,-0.000061,595.944701,4.553522,0,0,0,0
121.026855,-0.103629,-0.003008,-0.034797,-0.005645,-0.000024,0.037326,0.000000,0.000732,-0.001465,-0.000194,0.234080,-0.000061,674.961296,17.810247,0,0,0,0
121.036621,-0.103637,-0.003008,-0.034797,-0.005645,-0.000024,0.037326,0.000000,0.000732,-0.001465,-0.000194,0.234080,-0.000061,674.961296,17.810247,0,0,0,0
121.046394,-0.103646,-0.003008,-0.034797,-0.005645,-0.000024,0.037326,0.000000,0.000732,-0.001465,-0.000194,0.234080,-0.000061,674.961296,17.810247,0,0,0,0
121.056160,-0.103654,-0.003009,-0.034797,-0.005645,-0.000024,0.037326,0.000000,0.000732,-0.001465,-0.000194,0.234080,-0.000061,674.961296,17.810247,0,0,0,0
121.065933,-0.103662,-0.003009,-0.034797,-0.005645,-0.000024,0.037326,0.000000,0.000732,-0.001465,-0.000194,0.234080,-0.000061,674.961296,17.810247,0,0,0,0
121.075699,-0.103671,-0.003009,-0.034797,-0.005645,-0.000024,0.037326,0.000000,0.000732,-0.001465,-0.000194,0.234080,-0.000061,674.961296,17.810247,0,0,0,0
121.085472,-0.103679,-0.003009,-0.034797,-0.005645,-0.000024,0.037326,0.000000,0.000732,-0.001465,-0.000194,0.234080,-0.000061,674.961296,17.810247,0,0,0,0
121.095245,-0.103688,-0.003010,-0.034797,-0.005645,-0.000024,0.037326,0.000000,0.000732,-0.001465,-0.000194,0.234080,-0.000061,674.961296,17.810247,0,0,0,0
121.105011,-0.103696,-0.003010,-0.034797,-0.005645,-0.000024,0.037326,0.000000,0.000732,-0.001465,-0.000194,0.234080,-0.000061,674.961296,17.810247,0,0,0,0
121.114784,-0.103704,-0.003010,-0.034797,-0.005645,-0.000024,0.037326,0.000000,0.000732,-0.001465,-0.000194,0.234080,-0.000061,674.961296,17.810247,0,0,0,0
121.124550,-0.103713,-0.003010,-0.034797,-0.005645,-0.000024,0.037326,0.000000,0.000732,-0.001465,-0.000194,0.234080,-0.000061,674.961296,17.810247,0,0,0,0
121.134323,-0.103721,-0.003011,-0.034797,-0.005645,-0.000024,0.037326,0.000000,0.000732,-0.001465,-0.000194,0.234080,-0.000061,674.961296,17.810247,0,0,0,0
121.144089,-0.103729,-0.003011,-0.034797,-0.005645,-0.000024,0.037326,0.000000,0.000732,-0.001465,-0.000194,0.234080,-0.000061,674.961296,17.810247,0,0,0,0
121.153862,-0.103738,-0.003011,-0.034797,-0.005645,-0.000024,0.037326,0.000000,0.000732,-0.001465,-0.000194,0.234080,-0.000061,674.961296,17.810247,0,0,0,0
121.163635,-0.103746,-0.003011,-0.034797,-0.005645,-0.000024,0.037326,0.000000,0.000732,-0.001465,-0.000194,0.234080,-0.000061,169.305550,15.794584,0,0,0,0
121.173401,-0.103754,-0.003012,-0.034797,-0.005645,-0.000024,0.037326,0.000000,0.000732,-0.001465,-0.000194,0.234080,-0.000061,169.305550,15.794584,0,0,0,0
121.183174,-0.103763,-0.003012,-0.034797,-0.005645,-0.000024,0.037326,0.000000,0.000732,-0.001465,-0.000194,0.234080,-0.000061,169.305550,15.794584,0,0,0,0
121.192940,-0.103771,-0.003012,-0.034797,-0.005645,-0.000024,0.037326,0.000000,0.000732,-0.001465,-0.000194,0.234080,-0.000061,169.305550,15.794584,0,0,0,0
121.202713,-0.103780,-0.003012,-0.034797,-0.005645,-0.000024,0.037326,0.000000,0.000732,-0.001465,-0.000194,0.234080,-0.000061,169.305550,15.794584,0,0,0,0
121.212479,-0.103788,-0.003013,-0.034797,-0.005645,-0.000024,0.037326,0.000000,0.000732,-0.001465,-0.000194,0.234080,-0.000061,169.305550,15.794584,0,0,0,0
121.222252,-0.103796,-0.003013,-0.034797,-0.005645,-0.000024,0.037326,0.000000,0.000732,-0.001465,-0.000194,0.234080,-0.000061,540.504267,-3.973544,0,0,0,0
121.232025,-0.103805,-0.003013,-0.034797,-0.005645,-0.000024,0.037326,0.000000,0.000732,-0.001465,-0.000194,0.234080,-0.000061,540.504267,-3.973544,0,0,0,0
121.241791,-0.103813,-0.003013,-0.034797,-0.005645,-0.000024,0.037326,0.000000,0.000732,-0.001465,-0.000194,0.234080,-0.000061,540.504267,-3.973544,0,0,0,0
121.251564,-0.103821,-0.003014,-0.034797,-0.005645,-0.000024,0.037326,0.000000,0.000732,-0.001465,-0.000194,0.234080,-0.000061,540.504267,-3.973544,0,0,0,0
121.261330,-0.103830,-0.003014,-0.034797,-0.005645,-0.000024,0.037326,0.000000,0.000732,-0.001465,-0.000194,0.234080,-0.000061,540.504267,-3.973544,0,0,0,0
121.271103,-0.103838,-0.003014,-0.034797,-0.005645,-0.000024,0.037326,0.000000,0.000732,-0.001465,-0.000194,0.234080,-0.000061,540.504267,-3.973544,0,0,0,0
121.280869,-0.103847,-0.003015,-0.034797,-0.005645,-0.000024,0.037326,0.000000,0.000732,-0.001465,-0.000194,0.234080,-0.000061,540.504267,-3.973544,0,0,0,0
121.290642,-0.103855,-0.003015,-0.034797,-0.005645,-0.000024,0.037326,0.000000,0.000732,-0.001465,-0.000194,0.234080,-0.000061,540.504267,-3.973544,0,0,0,0
121.300415,-0.103863,-0.003015,-0.034797,-0.005645,-0.000024,0.037326,0.000000,0.000732,-0.001465,-0.000194,0.234080,-0.000061,540.504267,-3.973544,0,0,0,0
121.310181,-0.103872,-0.003015,-0.034797,-0.005645,-0.000024,0.037326,0.000000,0.000732,-0.001465,-0.000194,0.234080,-0.000061,540.504267,-3.973544,0,0,0,0
121.319954,-0.103880,-0.003016,-0.034797,-0.005645,-0.000024,0.037326,0.000000,0.000732,-0.001465,-0.000194,0.234080,-0.000061,540.504267,-3.973544,0,0,0,0
121.329720,-0.103888,-0.003016,-0.034797,-0.005645,-0.000024,0.037326,0.000000,0.000732,-0.001465,-0.000194,0.234080,-0.000061,540.504267,-3.973544,0,0,0,0
121.339493,-0.103897,-0.003016,-0.034797,-0.005645,-0.000024,0.037326,0.000000,0.000732,-0.001465,-0.000194,0.234080,-0.000061,540.504267,-3.973544,0,0,0,0
121.349258,-0.103905,-0.003016,-0.034797,-0.005645,-0.000024,0.037326,0.000000,0.000732,-0.001465,-0.000194,0.234080,-0.000061,540.504267,-3.973544,0,0,0,0
121.359032,-0.103914,-0.003017,-0.034797,-0.005645,-0.000024,0.037326,0.000000,0.000732,-0.001465,-0.000194,0.234080,-0.000061,423.128626,6.013295,0,0,0,0
121.368805,-0.103922,-0.003017,-0.034797,-0.005645,-0.000024,0.037326,0.000000,0.000732,-0.001465,-0.000194,0.234080,-0.000061,423.128626,6.013295,0,0,0,0
121.378571,-0.103930,-0.003017,-0.034797,-0.005645,-0.000024,0.037326,0.000000,0.000732,-0.001465,-0.000194,0.234080,-0.000061,423.128626,6.013295,0,0,0,0
121.388344,-0.103939,-0.003017,-0.034797,-0.005645,-0.000024,0.037326,0.000000,0.000732,-0.001465,-0.000194,0.234080,-0.000061,423.128626,6.013295,0,0,0,0
121.398109,-0.103947,-0.003018,-0.034797,-0.005645,-0.000024,0.037326,0.000000,0.000732,-0.001465,-0.000194,0.234080,-0.000061,423.128626,6.013295,0,0,0,0
121.407883,-0.103955,-0.003018,-0.034797,-0.005645,-0.000024,0.037326,0.000000,0.000732,-0.001465,-0.000194,0.234080,-0.000061,423.128626,6.013295,0,0,0,0
121.417648,-0.103964,-0.003018,-0.034797,-0.005645,-0.000024,0.037326,0.000000,0.000732,-0.001465,-0.000194,0.234080,-0.000061,423.128626,6.013295,0,0,0,0
121.427422,-0.103972,-0.003018,-0.034797,-0.005645,-0.000024,0.037326,0.000000,0.000732,-0.001465,-0.000194,0.234080,-0.000061,658.124688,10.385181,0,0,0,0
121.437195,-0.103981,-0.003019,-0.034797,-0.005645,-0.000024,0.037326,0.000000,0.000732,-0.001465,-0.000194,0.234080,-0.000061,658.124688,10.385181,0,0,0,0
121.446960,-0.103989,-0.003019,-0.034797,-0.005645,-0.000024,0.037326,0.000000,0.000732,-0.001465,-0.000194,0.234080,-0.000061,658.124688,10.385181,0,0,0,0
121.456734,-0.103997,-0.003019,-0.034797,-0.005645,-0.000024,0.037326,0.000000,0.000732,-0.001465,-0.000194,0.234080,-0.000061,658.124688,10.385181,0,0,0,0
121.466499,-0.104006,-0.003020,-0.034797,-0.005645,-0.000024,0.037326,0.000000,0.000732,-0.001465,-0.000194,0.234080,-0.000061,658.124688,10.385181,0,0,0,0
121.476273,-0.104014,-0.003020,-0.034797,-0.005645,-0.000024,0.037326,0.000000,0.000732,-0.001465,-0.000194,0.234080,-0.000061,658.124688,10.385181,0,0,0,0
121.486038,-0.104022,-0.003020,-0.034797,-0.005645,-0.000024,0.037326,0.000000,0.000732,-0.001465,-0.000194,0.234080,-0.000061,658.124688,10.385181,0,0,0,0
121.495811,-0.104031,-0.003020,-0.034797,-0.005645,-0.000024,0.037326,0.000000,0.000732,-0.001465,-0.000194,0.234080,-0.000061,658.124688,10.385181,0,0,0,0
121.505585,-0.104039,-0.003021,-0.034797,-0.005645,-0.000024,0.037326,0.000000,0.000732,-0.001465,-0.000194,0.234080,-0.000061,658.124688,10.385181,0,0,0,0
121.515350,-0.104048,-0.003021,-0.034797,-0.005645,-0.000024,0.037326,0.000000,0.000732,-0.001465,-0.000194,0.234080,-0.000061,658.124688,10.385181,0,0,0,0
121.525124,-0.104056,-0.003021,-0.034797,-0.005645,-0.000024,0.037326,0.000000,0.000732,-0.001465,-0.000194,0.234080,-0.000061,658.124688,10.385181,0,0,0,0
121.534889,-0.104064,-0.003021,-0.034797,-0.005645,-0.000024,0.037326,0.000000,0.000732,-0.001465,-0.000194,0.234080,-0.000061,658.124688,10.385181,0,0,0,0
121.544662,-0.104073,-0.003022,-0.034797,-0.005645,-0.000024,0.037326,0.000000,0.000732,-0.001465,-0.000194,0.234080,-0.000061,658.124688,10.385181,0,0,0,0
121.554436,-0.104081,-0.003022,-0.034797,-0.005645,-0.000024,0.037326,0.000000,0.000732,-0.001465,-0.000194,0.234080,-0.000061,54.924165,4.122032,0,0,0,0
121.564201,-0.104089,-0.003022,-0.034797,-0.005645,-0.000024,0.037326,0.000000,0.000732,-0.001465,-0.000194,0.234080,-0.000061,54.924165,4.122032,0,0,0,0
121.573975,-0.104098,-0.003022,-0.034797,-0.005645,-0.000024,0.037326,0.000000,0.000732,-0.001465,-0.000194,0.234080,-0.000061,54.924165,4.122032,0,0,0,0
121.583740,-0.104106,-0.003023,-0.034797,-0.005645,-0.000024,0.037326,0.000000,0.000732,-0.001465,-0.000194,0.234080,-0.000061,54.924165,4.122032,0,0,0,0
121.593513,-0.104115,-0.003023,-0.034797,-0.005645,-0.000024,0.037326,0.000000,0.000732,-0.001465,-0.000194,0.234080,-0.000061,54.924165,4.122032,0,0,0,0
121.603279,-0.104123,-0.003023,-0.034797,-0.005645,-0.000024,0.037326,0.000000,0.000732,-0.001465,-0.000194,0.234080,-0.000061,54.924165,4.122032,0,0,0,0
121.613052,-0.104131,-0.003023,-0.034797,-0.005645,-0.000024,0.037326,0.000000,0.000732,-0.001465,-0.000194,0.234080,-0.000061,54.924165,4.122032,0,0,0,0
121.622826,-0.104140,-0.003024,-0.034797,-0.005645,-0.000024,0.037326,0.000000,0.000732,-0.001465,-0.000194,0.234080,-0.000061,439.391358,18.265974,0,0,0,0
121.632591,-0.104148,-0.003024,-0.034797,-0.005645,-0.000024,0.037326,0.000000,0.000732,-0.001465,-0.000194,0.234080,-0.000061,439.391358,18.265974,0,0,0,0
121.642365,-0.104156,-0.003024,-0.034797,-0.005645,-0.000024,0.037326,0.000000,0.000732,-0.001465,-0.000194,0.234080,-0.000061,439.391358,18.265974,0,0,0,0
121.652130,-0.104165,-0.003025,-0.034797,-0.005645,-0.000024,0.037326,0.000000,0.000732,-0.001465,-0.000194,0.234080,-0.000061,439.391358,18.265974,0,0,0,0
121.661903,-0.104173,-0.003025,-0.034797,-0.005645,-0.000024,0.037326,0.000000,0.000732,-0.001465,-0.000194,0.234080,-0.000061,439.391358,18.265974,0,0,0,0
121.671669,-0.104182,-0.003025,-0.034797,-0.005645,-0.000024,0.037326,0.000000,0.000732,-0.001465,-0.000194,0.234080,-0.000061,439.391358,18.265974,0,0,0,0
121.681442,-0.104190,-0.003025,-0.034797,-0.005645,-0.000024,0.037326,0.000000,0.000732,-0.001465,-0.000194,0.234080,-0.000061,439.391358,18.265974,0,0,0,0
121.691216,-0.104198,-0.003026,-0.034797,-0.005645,-0.000024,0.037326,0.000000,0.000732,-0.001465,-0.000194,0.234080,-0.000061,439.391358,18.265974,0,0,0,0
121.700981,-0.104207,-0.003026,-0.034797,-0.005645,-0.000024,0.037326,0.000000,0.000732,-0.001465,-0.000194,0.234080,-0.000061,439.391358,18.265974,0,0,0,0
121.710754,-0.104215,-0.003026,-0.034797,-0.005645,-0.000024,0.037326,0.000000,0.000732,-0.001465,-0.000194,0.234080,-0.000061,439.391358,18.265974,0,0,0,0
121.720520,-0.104223,-0.003026,-0.034797,-0.005645,-0.000024,0.037326,0.000000,0.000732,-0.001465,-0.000194,0.234080,-0.000061,439.391358,18.265974,0,0,0,0
121.730293,-0.104232,-0.003027,-0.034797,-0.005645,-0.000024,0.037326,0.000000,0.000732,-0.001465,-0.000194,0.234080,-0.000061,439.391358,18.265974,0,0,0,0
121.740059,-0.104240,-0.003027,-0.034797,-0.005645,-0.000024,0.037326,0.000000,0.000732,-0.001465,-0.000194,0.234080,-0.000061,439.391358,18.265974,0,0,0,0
121.749832,-0.104249,-0.003027,-0.034797,-0.005645,-0.000024,0.037326,0.000000,0.000732,-0.001465,-0.000194,0.234080,-0.000061,439.391358,18.265974,0,0,0,0
121.759605,-0.104257,-0.003027,-0.034797,-0.005645,-0.000024,0.037326,0.000000,0.000732,-0.001465,-0.000194,0.234080,-0.000061,107.068360,5.424109,0,0,0,0
121.769371,-0.104265,-0.003028,-0.034797,-0.005645,-0.000024,0.037326,0.000000,0.000732,-0.001465,-0.000194,0.234080,-0.000061,107.068360,5.424109,0,0,0,0
121.779144,-0.104274,-0.003028,-0.034797,-0.005645,-0.000024,0.037326,0.000000,0.000732,-0.001465,-0.000194,0.234080,-0.000061,107.068360,5.424109,0,0,0,0
121.788910,-0.104282,-0.003028,-0.034797,-0.005645,-0.000024,0.037326,0.000000,0.000732,-0.001465,-0.000194,0.234080,-0.000061,107.068360,5.424109,0,0,0,0
121.798683,-0.104290,-0.003028,-0.034797,-0.005645,-0.000024,0.037326,0.000000,0.000732,-0.001465,-0.000194,0.234080,-0.000061,107.068360,5.424109,0,0,0,0
121.808449,-0.104299,-0.003029,-0.034797,-0.005645,-0.000024,0.037326,0.000000,0.000732,-0.001465,-0.000194,0.234080,-0.000061,107.068360,5.424109,0,0,0,0
121.818222,-0.104307,-0.003029,-0.034797,-0.005645,-0.000024,0.037326,0.000000,0.000732,-0.001465,-0.000194,0.234080,-0.000061,107.068360,5.424109,0,0,0,0
121.827995,-0.104316,-0.003029,-0.034797,-0.005645,-0.000024,0.037326,0.000000,0.000732,-0.001465,-0.000194,0.234080,-0.000061,795.265543,-9.925170,0,0,0,0
121.837761,-0.104324,-0.003029,-0.034797,-0.005645,-0.000024,0.037326,0.000000,0.000732,-0.001465,-0.000194,0.234080,-0.000061,795.265543,-9.925170,0,0,0,0
121.847534,-0.104332,-0.003030,-0.034797,-0.005645,-0.000024,0.037326,0.000000,0.000732,-0.001465,-0.000194,0.234080,-0.000061,795.265543,-9.925170,0,0,0,0
121.857300,-0.104341,-0.003030,-0.034797,-0.005645,-0.000024,0.037326,0.000000,0.000732,-0.001465,-0.000194,0.234080,-0.000061,795.265543,-9.925170,0,0,0,0
121.867073,-0.104349,-0.003030,-0.034797,-0.005645,-0.000024,0.037326,0.000000,0.000732,-0.001465,-0.000194,0.234080,-0.000061,795.265543,-9.925170,0,0,0,0
121.876839,-0.104357,-0.003031,-0.034797,-0.005645,-0.000024,0.037326,0.000000,0.000732,-0.001465,-0.000194,0.234080,-0.000061,795.265543,-9.925170,0,0,0,0
121.886612,-0.104366,-0.003031,-0.034797,-0.005645,-0.000024,0.037326,0.000000,0.000732,-0.001465,-0.000194,0.234080,-0.000061,795.265543,-9.925170,0,0,0,0
121.896385,-0.104374,-0.003031,-0.034797,-0.005645,-0.000024,0.037326,0.000000,0.000732,-0.001465,-0.000194,0.234080,-0.000061,795.265543,-9.925170,0,0,0,0
121.906151,-0.104383,-0.003031,-0.034797,-0.005645,-0.000024,0.037326,0.000000,0.000732,-0.001465,-0.000194,0.234080,-0.000061,795.265543,-9.925170,0,0,0,0
121.915924,-0.104391,-0.003032,-0.034797,-0.005645,-0.000024,0.037326,0.000000,0.000732,-0.001465,-0.000194,0.234080,-0.000061,795.265543,-9.925170,0,0,0,0
121.925690,-0.104399,-0.003032,-0.034797,-0.005645,-0.000024,0.037326,0.000000,0.000732,-0.001465,-0.000194,0.234080,-0.000061,795.265543,-9.925170,0,0,0,0
121.935463,-0.104408,-0.003032,-0.034797,-0.005645,-0.000024,0.037326,0.000000,0.000732,-0.001465,-0.000194,0.234080,-0.000061,795.265543,-9.925170,0,0,0,0
121.945229,-0.104416,-0.003032,-0.034797,-0.005645,-0.000024,0.037326,0.000000,0.000732,-0.001465,-0.000194,0.234080,-0.000061,795.265543,-9.925170,0,0,0,0
121.955002,-0.104424,-0.003033,-0.034797,-0.005645,-0.000024,0.037326,0.000000,0.000732,-0.001465,-0.000194,0.234080,-0.000061,462.835120,14.694820,0,0,0,0
121.964775,-0.104433,-0.003033,-0.034797,-0.005645,-0.000024,0.037326,0.000000,0.000732,-0.001465,-0.000194,0.234080,-0.000061,462.835120,14.694820,0,0,0,0
121.974541,-0.104441,-0.003033,-0.034797,-0.005645,-0.000024,0.037326,0.000000,0.000732,-0.001465,-0.000194,0.234080,-0.000061,462.835120,14.694820,0,0,0,0
121.984314,-0.104450,-0.003033,-0.034797,-0.005645,-0.000024,0.037326,0.000000,0.000732,-0.001465,-0.000194,0.234080,-0.000061,462.835120,14.694820,0,0,0,0
121.994080,-0.104458,-0.003034,-0.034797,-0.005645,-0.000024,0.037326,0.000000,0.000732,-0.001465,-0.000194,0.234080,-0.000061,462.835120,14.694820,0,0,0,0
122.003853,-0.104466,-0.003034,-0.034797,-0.005645,-0.000024,0.037326,0.000000,0.000732,-0.001465,-0.000194,0.234080,-0.000061,462.835120,14.694820,0,0,0,0
122.013618,-0.104475,-0.003034,-0.034797,-0.005645,-0.000024,0.037326,0.000000,0.000732,-0.001465,-0.000194,0.234080,-0.000061,462.835120,14.694820,0,0,0,0
122.023392,-0.104483,-0.003034,-0.034797,-0.005645,-0.000024,0.037326,0.000000,0.000732,-0.001465,-0.000194,0.234080,-0.000061,734.239283,-3.336173,0,0,0,0
122.033165,-0.104491,-0.003035,-0.034797,-0.005645,-0.000024,0.037326,0.000000,0.000732,-0.001465,-0.000194,0.234080,-0.000061,734.239283,-3.336173,0,0,0,0
122.042931,-0.104500,-0.003035,-0.034797,-0.005645,-0.000024,0.037326,0.000000,0.000732,-0.001465,-0.000194,0.234080,-0.000061,734.239283,-3.336173,0,0,0,0
122.052704,-0.104508,-0.003035,-0.034797,-0.005645,-0.000024,0.037326,0.000000,0.000732,-0.001465,-0.000194,0.234080,-0.000061,734.239283,-3.336173,0,0,0,0
122.062469,-0.104517,-0.003036,-0.034797,-0.005645,-0.000024,0.037326,0.000000,0.000732,-0.001465,-0.000194,0.234080,-0.000061,734.239283,-3.336173,0,0,0,0
122.072243,-0.104525,-0.003036,-0.034797,-0.005645,-0.000024,0.037326,0.000000,0.000732,-0.001465,-0.000194,0.234080,-0.000061,734.239283,-3.336173,0,0,0,0
122.082008,-0.104533,-0.003036,-0.034797,-0.005645,-0.000024,0.037326,0.000000,0.000732,-0.001465,-0.000194,0.234080,-0.000061,734.239283,-3.336173,0,0,0,0
122.091782,-0.104542,-0.003036,-0.034797,-0.005645,-0.000024,0.037326,0.000000,0.000732,-0.001465,-0.000194,0.234080,-0.000061,734.239283,-3.336173,0,0,0,0
122.101555,-0.104550,-0.003037,-0.034797,-0.005645,-0.000024,0.037326,0.000000,0.000732,-0.001465,-0.000194,0.234080,-0.000061,734.239283,-3.336173,0,0,0,0
122.111320,-0.104558,-0.003037,-0.034797,-0.005645,-0.000024,0.037326,0.000000,0.000732,-0.001465,-0.000194,0.234080,-0.000061,734.239283,-3.336173,0,0,0,0
122.121094,-0.104567,-0.003037,-0.034797,-0.005645,-0.000024,0.037326,0.000000,0.000732,-0.001465,-0.000194,0.234080,-0.000061,734.239283,-3.336173,0,0,0,0
122.130859,-0.104575,-0.003037,-0.034797,-0.005645,-0.000024,0.037326,0.000000,0.000732,-0.001465,-0.000194,0.234080,-0.000061,734.239283,-3.336173,0,0,0,0
122.140633,-0.104584,-0.003038,-0.034797,-0.005645,-0.000024,0.037326,0.000000,0.000732,-0.001465,-0.000194,0.234080,-0.000061,734.239283,-3.336173,0,0,0,0
122.150398,-0.104592,-0.003038,-0.034797,-0.005645,-0.000024,0.037326,0.000000,0.000732,-0.001465,-0.000194,0.234080,-0.000061,734.239283,-3.336173,0,0,0,0
122.160172,-0.104600,-0.003038,-0.034797,-0.005645,-0.000024,0.037326,0.000000,0.000732,-0.001465,-0.000194,0.234080,-0.000061,711.401180,3.670673,0,0,0,0
122.169945,-0.104609,-0.003038,-0.034797,-0.005645,-0.000024,0.037326,0.000000,0.000732,-0.001465,-0.000194,0.234080,-0.000061,711.401180,3.670673,0,0,0,0
122.179710,-0.104617,-0.003039,-0.034797,-0.005645,-0.000024,0.037326,0.000000,0.000732,-0.001465,-0.000194,0.234080,-0.000061,711.401180,3.670673,0,0,0,0
122.189484,-0.104625,-0.003039,-0.034797,-0.005645,-0.000024,0.037326,0.000000,0.000732,-0.001465,-0.000194,0.234080,-0.000061,711.401180,3.670673,0,0,0,0
122.199249,-0.104634,-0.003039,-0.034797,-0.005645,-0.000024,0.037326,0.000000,0.000732,-0.001465,-0.000194,0.234080,-0.000061,711.401180,3.670673,0,0,0,0
122.209023,-0.104642,-0.003039,-0.034797,-0.005645,-0.000024,0.037326,0.000000,0.000732,-0.001465,-0.000194,0.234080,-0.000061,711.401180,3.670673,0,0,0,0
122.218796,-0.104650,-0.003040,-0.034797,-0.005645,-0.000024,0.037326,0.000000,0.000732,-0.001465,-0.000194,0.234080,-0.000061,711.401180,3.670673,0,0,0,0
122.228561,-0.104659,-0.003040,-0.034797,-0.005645,-0.000024,0.037326,0.000000,0.000732,-0.001465,-0.000194,0.234080,-0.000061,508.062013,36.814846,0,0,0,0
122.238335,-0.104667,-0.003040,-0.034797,-0.005645,-0.000024,0.037326,0.000000,0.000732,-0.001465,-0.000194,0.234080,-0.000061,508.062013,36.814846,0,0,0,0
122.248100,-0.104676,-0.003041,-0.034797,-0.005645,-0.000024,0.037326,0.000000,0.000732,-0.001465,-0.000194,0.234080,-0.000061,508.062013,36.814846,0,0,0,0
122.257874,-0.104684,-0.003041,-0.034797,-0.005645,-0.000024,0.037326,0.000000,0.000732,-0.001465,-0.000194,0.234080,-0.000061,508.062013,36.814846,0,0,0,0
122.267639,-0.104692,-0.003041,-0.034797,-0.005645,-0.000024,0.037326,0.000000,0.000732,-0.001465,-0.000194,0.234080,-0.000061,508.062013,36.814846,0,0,0,0
122.277412,-0.104701,-0.003041,-0.034797,-0.005645,-0.000024,0.037326,0.000000,0.000732,-0.001465,-0.000194,0.234080,-0.000061,508.062013,36.814846,0,0,0,0
122.287186,-0.104709,-0.003042,-0.034797,-0.005645,-0.000024,0.037326,0.000000,0.000732,-0.001465,-0.000194,0.234080,-0.000061,508.062013,36.814846,0,0,0,0
122.296951,-0.104717,-0.003042,-0.034797,-0.005645,-0.000024,0.037326,0.000000,0.000732,-0.001465,-0.000194,0.234080,-0.000061,508.062013,36.814846,0,0,0,0
122.306725,-0.104726,-0.003042,-0.034797,-0.005645,-0.000024,0.037326,0.000000,0.000732,-0.001465,-0.000194,0.234080,-0.000061,508.062013,36.814846,0,0,0,0
122.316490,-0.104734,-0.003042,-0.034797,-0.005645,-0.000024,0.037326,0.000000,0.000732,-0.001465,-0.000194,0.234080,-0.000061,508.062013,36.814846,0,0,0,0
122.326263,-0.104743,-0.003043,-0.034797,-0.005645,-0.000024,0.037326,0.000000,0.000732,-0.001465,-0.000194,0.234080,-0.000061,508.062013,36.814846,0,0,0,0
122.336029,-0.104751,-0.003043,-0.034797,-0.005645,-0.000024,0.037326,0.000000,0.000732,-0.001465,-0.000194,0.234080,-0.000061,508.062013,36.814846,0,0,0,0
122.345802,-0.104759,-0.003043,-0.034797,-0.005645,-0.000024,0.037326,0.000000,0.000732,-0.001465,-0.000194,0.234080,-0.000061,508.062013,36.814846,0,0,0,0
122.355576,-0.104768,-0.003043,-0.034797,-0.005645,-0.000024,0.037326,0.000000,0.000732,-0.001465,-0.000194,0.234080,-0.000061,724.283382,-1.375316,0,0,0,0
122.365341,-0.104776,-0.003044,-0.034797,-0.005645,-0.000024,0.037326,0.000000,0.000732,-0.001465,-0.000194,0.234080,-0.000061,724.283382,-1.375316,0,0,0,0
122.375114,-0.104784,-0.003044,-0.034797,-0.005645,-0.000024,0.037326,0.000000,0.000732,-0.001465,-0.000194,0.234080,-0.000061,724.283382,-1.375316,0,0,0,0
122.384880,-0.104793,-0.003044,-0.034797,-0.005645,-0.000024,0.037326,0.000000,0.000732,-0.001465,-0.000194,0.234080,-0.000061,724.283382,-1.375316,0,0,0,0
122.394653,-0.104801,-0.003044,-0.034797,-0.005645,-0.000024,0.037326,0.000000,0.000732,-0.001465,-0.000194,0.234080,-0.000061,724.283382,-1.375316,0,0,0,0
122.404419,-0.104810,-0.003045,-0.034797,-0.005645,-0.000024,0.037326,0.000000,0.000732,-0.001465,-0.000194,0.234080,-0.000061,724.283382,-1.375316,0,0,0,0
122.414192,-0.104818,-0.003045,-0.034797,-0.005645,-0.000024,0.037326,0.000000,0.000732,-0.001465,-0.000194,0.234080,-0.000061,724.283382,-1.375316,0,0,0,0
122.423965,-0.104826,-0.003045,-0.034797,-0.005645,-0.000024,0.037326,0.000000,0.000732,-0.001465,-0.000194,0.234080,-0.000061,411.854812,6.577707,0,0,0,0
122.433731,-0.104835,-0.003046,-0.034797,-0.005645,-0.000024,0.037326,0.000000,0.000732,-0.001465,-0.000194,0.234080,-0.000061,411.854812,6.577707,0,0,0,0
122.443504,-0.104843,-0.003046,-0.034797,-0.005645,-0.000024,0.037326,0.000000,0.000732,-0.001465,-0.000194,0.234080,-0.000061,411.854812,6.577707,0,0,0,0
122.453270,-0.104851,-0.003046,-0.034797,-0.005645,-0.000024,0.037326,0.000000,0.000732,-0.001465,-0.000194,0.234080,-0.000061,411.854812,6.577707,0,0,0,0
122.463043,-0.104860,-0.003046,-0.034797,-0.005645,-0.000024,0.037326,0.000000,0.000732,-0.001465,-0.000194,0.234080,-0.000061,411.854812,6.577707,0,0,0,0
122.472809,-0.104868,-0.003047,-0.034797,-0.005645,-0.000024,0.037326,0.000000,0.000732,-0.001465,-0.000194,0.234080,-0.000061,411.854812,6.577707,0,0,0,0
122.482582,-0.104877,-0.003047,-0.034797,-0.005645,-0.000024,0.037326,0.000000,0.000732,-0.001465,-0.000194,0.234080,-0.000061,411.854812,6.577707,0,0,0,0
122.492355,-0.104885,-0.003047,-0.034797,-0.005645,-0.000024,0.037326,0.000000,0.000732,-0.001465,-0.000194,0.234080,-0.000061,411.854812,6.577707,0,0,0,0
122.502121,-0.104893,-0.003047,-0.034797,-0.005645,-0.000024,0.037326,0.000000,0.000732,-0.001465,-0.000194,0.234080,-0.000061,411.854812,6.577707,0,0,0,0
122.511894,-0.104902,-0.003048,-0.034797,-0.005645,-0.000024,0.037326,0.000000,0.000732,-0.001465,-0.000194,0.234080,-0.000061,411.854812,6.577707,0,0,0,0
122.521660,-0.104910,-0.003048,-0.034797,-0.005645,-0.000024,0.037326,0.000000,0.000732,-0.001465,-0.000194,0.234080,-0.000061,411.854812,6.577707,0,0,0,0
122.531433,-0.104918,-0.003048,-0.034797,-0.005645,-0.000024,0.037326,0.000000,0.000732,-0.001465,-0.000194,0.234080,-0.000061,411.854812,6.577707,0,0,0,0
122.541199,-0.104927,-0.003048,-0.034797,-0.005645,-0.000024,0.037326,0.000000,0.000732,-0.001465,-0.000194,0.234080,-0.000061,411.854812,6.577707,0,0,0,0
122.550972,-0.104935,-0.003049,-0.034797,-0.005645,-0.000024,0.037326,0.000000,0.000732,-0.001465,-0.000194,0.234080,-0.000061,411.854812,6.577707,0,0,0,0
122.560745,-0.104944,-0.003049,-0.034797,-0.005645,-0.000024,0.037326,0.000000,0.000732,-0.001465,-0.000194,0.234080,-0.000061,109.631914,13.118233,0,0,0,0
122.570511,-0.104952,-0.003049,-0.034797,-0.005645,-0.000024,0.037326,0.000000,0.000732,-0.001465,-0.000194,0.234080,-0.000061,109.631914,13.118233,0,0,0,0
122.580284,-0.104960,-0.003049,-0.034797,-0.005645,-0.000024,0.037326,0.000000,0.000732,-0.001465,-0.000194,0.234080,-0.000061,109.631914,13.118233,0,0,0,0
122.590050,-0.104969,-0.003050,-0.034797,-0.005645,-0.000024,0.037326,0.000000,0.000732,-0.001465,-0.000194,0.234080,-0.000061,109.631914,13.118233,0,0,0,0
122.599823,-0.104977,-0.003050,-0.034797,-0.005645,-0.000024,0.037326,0.000000,0.000732,-0.001465,-0.000194,0.234080,-0.000061,109.631914,13.118233,0,0,0,0
122.609589,-0.104985,-0.003050,-0.034797,-0.005645,-0.000024,0.037326,0.000000,0.000732,-0.001465,-0.000194,0.234080,-0.000061,109.631914,13.118233,0,0,0,0
122.619362,-0.104994,-0.003050,-0.034797,-0.005645,-0.000024,0.037326,0.000000,0.000732,-0.001465,-0.000194,0.234080,-0.000061,545.700924,-15.242246,0,0,0,0
122.629135,-0.105002,-0.003051,-0.034797,-0.005645,-0.000024,0.037326,0.000000,0.000732,-0.001465,-0.000194,0.234080,-0.000061,545.700924,-15.242246,0,0,0,0
122.638901,-0.105011,-0.003051,-0.034797,-0.005645,-0.000024,0.037326,0.000000,0.000732,-0.001465,-0.000194,0.234080,-0.000061,545.700924,-15.242246,0,0,0,0
122.648674,-0.105019,-0.003051,-0.034797,-0.005645,-0.000024,0.037326,0.000000,0.000732,-0.001465,-0.000194,0.234080,-0.000061,545.700924,-15.242246,0,0,0,0
122.658440,-0.105027,-0.003052,-0.034797,-0.005645,-0.000024,0.037326,0.000000,0.000732,-0.001465,-0.000194,0.234080,-0.000061,545.700924,-15.242246,0,0,0,0
122.668213,-0.105036,-0.003052,-0.034797,-0.005645,-0.000024,0.037326,0.000000,0.000732,-0.001465,-0.000194,0.234080,-0.000061,545.700924,-15.242246,0,0,0,0
122.677979,-0.105044,-0.003052,-0.034797,-0.005645,-0.000024,0.037326,0.000000,0.000732,-0.001465,-0.000194,0.234080,-0.000061,545.700924,-15.242246,0,0,0,0
122.687752,-0.105052,-0.003052,-0.034797,-0.005645,-0.000024,0.037326,0.000000,0.000732,-0.001465,-0.000194,0.234080,-0.000061,545.700924,-15.242246,0,0,0,0
122.697525,-0.105061,-0.003053,-0.034797,-0.005645,-0.000024,0.037326,0.000000,0.000732,-0.001465,-0.000194,0.234080,-0.000061,545.700924,-15.242246,0,0,0,0
122.707291,-0.105069,-0.003053,-0.034797,-0.005645,-0.000024,0.037326,0.000000,0.000732,-0.001465,-0.000194,0.234080,-0.000061,545.700924,-15.242246,0,0,0,0
122.717064,-0.105078,-0.003053,-0.034797,-0.005645,-0.000024,0.037326,0.000000,0.000732,-0.001465,-0.000194,0.234080,-0.000061,545.700924,-15.242246,0,0,0,0
122.726830,-0.105086,-0.003053,-0.034797,-0.005645,-0.000024,0.037326,0.000000,0.000732,-0.001465,-0.000194,0.234080,-0.000061,545.700924,-15.242246,0,0,0,0
122.736603,-0.105094,-0.003054,-0.034797,-0.005645,-0.000024,0.037326,0.000000,0.000732,-0.001465,-0.000194,0.234080,-0.000061,545.700924,-15.242246,0,0,0,0
122.746368,-0.105103,-0.003054,-0.034797,-0.005645,-0.000024,0.037326,0.000000,0.000732,-0.001465,-0.000194,0.234080,-0.000061,545.700924,-15.242246,0,0,0,0
122.756142,-0.105111,-0.003054,-0.034797,-0.005645,-0.000024,0.037326,0.000000,0.000732,-0.001465,-0.000194,0.234080,-0.000061,508.072351,31.576273,0,0,0,0
122.765915,-0.105119,-0.003054,-0.034797,-0.005645,-0.000024,0.037326,0.000000,0.000732,-0.001465,-0.000194,0.234080,-0.000061,508.072351,31.576273,0,0,0,0
122.775681,-0.105128,-0.003055,-0.034797,-0.005645,-0.000024,0.037326,0.000000,0.000732,-0.001465,-0.000194,0.234080,-0.000061,508.072351,31.576273,0,0,0,0
122.785454,-0.105136,-0.003055,-0.034797,-0.005645,-0.000024,0.037326,0.000000,0.000732,-0.001465,-0.000194,0.234080,-0.000061,508.072351,31.576273,0,0,0,0
122.795219,-0.105145,-0.003055,-0.034797,-0.005645,-0.000024,0.037326,0.000000,0.000732,-0.001465,-0.000194,0.234080,-0.000061,508.072351,31.576273,0,0,0,0
122.804993,-0.105153,-0.003055,-0.034797,-0.005645,-0.000024,0.037326,0.000000,0.000732,-0.001465,-0.000194,0.234080,-0.000060,508.072351,31.576273,0,0,0,0
122.814758,-0.105161,-0.003056,-0.034797,-0.005645,-0.000024,0.037326,0.000000,0.000732,-0.001465,-0.000194,0.234080,-0.000060,583.764835,-4.436800,0,0,0,0
122.824532,-0.105170,-0.003056,-0.034797,-0.005645,-0.000024,0.037326,0.000000,0.000732,-0.001465,-0.000194,0.234080,-0.000060,583.764835,-4.436800,0,0,0,0
122.834305,-0.105178,-0.003056,-0.034797,-0.005645,-0.000024,0.037326,0.000000,0.000732,-0.001465,-0.000194,0.234080,-0.000060,583.764835,-4.436800,0,0,0,0
122.844070,-0.105186,-0.003057,-0.034797,-0.005645,-0.000024,0.037326,0.000000,0.000732,-0.001465,-0.000194,0.234080,-0.000060,583.764835,-4.436800,0,0,0,0
122.853844,-0.105195,-0.003057,-0.034797,-0.005645,-0.000024,0.037326,0.000000,0.000732,-0.001465,-0.000194,0.234080,-0.000060,583.764835,-4.436800,0,0,0,0
122.863609,-0.105203,-0.003057,-0.034797,-0.005645,-0.000024,0.037326,0.000000,0.000732,-0.001465,-0.000194,0.234080,-0.000060,583.764835,-4.436800,0,0,0,0
122.873383,-0.105212,-0.003057,-0.034797,-0.005645,-0.000024,0.037326,0.000000,0.000732,-0.001465,-0.000194,0.234080,-0.000060,583.764835,-4.436800,0,0,0,0
122.883148,-0.105220,-0.003058,-0.034797,-0.005645,-0.000024,0.037326,0.000000,0.000732,-0.001465,-0.000194,0.234080,-0.000060,583.764835,-4.436800,0,0,0,0
122.892921,-0.105228,-0.003058,-0.034797,-0.005645,-0.000024,0.037326,0.000000,0.000732,-0.001465,-0.000194,0.234080,-0.000060,583.764835,-4.436800,0,0,0,0
122.902695,-0.105237,-0.003058,-0.034797,-0.005645,-0.000024,0.037326,0.000000,0.000732,-0.001465,-0.000194,0.234080,-0.000060,583.764835,-4.436800,0,0,0,0
122.912460,-0.105245,-0.003058,-0.034797,-0.005645,-0.000024,0.037326,0.000000,0.000732,-0.001465,-0.000194,0.234080,-0.000060,583.764835,-4.436800,0,0,0,0
122.922234,-0.105253,-0.003059,-0.034797,-0.005645,-0.000024,0.037326,0.000000,0.000732,-0.001465,-0.000194,0.234080,-0.000060,583.764835,-4.436800,0,0,0,0
122.931999,-0.105262,-0.003059,-0.034797,-0.005645,-0.000024,0.037326,0.000000,0.000732,-0.001465,-0.000194,0.234080,-0.000060,583.764835,-4.436800,0,0,0,0
122.941772,-0.105270,-0.003059,-0.034797,-0.005645,-0.000024,0.037326,0.000000,0.000732,-0.001465,-0.000194,0.234080,-0.000060,583.764835,-4.436800,0,0,0,0
122.951546,-0.105279,-0.003059,-0.034797,-0.005645,-0.000024,0.037326,0.000000,0.000732,-0.001465,-0.000194,0.234080,-0.000060,256.217213,23.702209,0,0,0,0
122.961311,-0.105287,-0.003060,-0.034797,-0.005645,-0.000024,0.037326,0.000000,0.000732,-0.001465,-0.000194,0.234080,-0.000060,256.217213,23.702209,0,0,0,0
122.971085,-0.105295,-0.003060,-0.034797,-0.005645,-0.000024,0.037326,0.000000,0.000732,-0.001465,-0.000194,0.234080,-0.000060,256.217213,23.702209,0,0,0,0
122.980850,-0.105304,-0.003060,-0.034797,-0.005645,-0.000024,0.037326,0.000000,0.000732,-0.001465,-0.000194,0.234080,-0.000060,256.217213,23.702209,0,0,0,0
122.990623,-0.105312,-0.003060,-0.034797,-0.005645,-0.000024,0.037326,0.000000,0.000732,-0.001465,-0.000194,0.234080,-0.000060,256.217213,23.702209,0,0,0,0
123.000389,-0.105320,-0.003061,-0.034797,-0.005645,-0.000024,0.037326,0.000000,0.000732,-0.001465,-0.000194,0.234080,-0.000060,256.217213,23.702209,0,0,0,0
123.010162,-0.105329,-0.003061,-0.034797,-0.005645,-0.000024,0.037326,0.000000,0.000732,-0.001465,-0.000194,0.234080,-0.000060,571.437666,-15.381113,0,0,0,0
123.019936,-0.105337,-0.003061,-0.034797,-0.005645,-0.000024,0.037326,0.000000,0.000732,-0.001465,-0.000194,0.234080,-0.000060,571.437666,-15.381113,0,0,0,0
123.029701,-0.105346,-0.003062,-0.034797,-0.005645,-0.000024,0.037326,0.000000,0.000732,-0.001465,-0.000194,0.234080,-0.000060,571.437666,-15.381113,0,0,0,0
123.039474,-0.105354,-0.003062,-0.034797,-0.005645,-0.000024,0.037326,0.000000,0.000732,-0.001465,-0.000194,0.234080,-0.000060,571.437666,-15.381113,0,0,0,0
123.049240,-0.105362,-0.003062,-0.034797,-0.005645,-0.000024,0.037326,0.000000,0.000732,-0.001465,-0.000194,0.234080,-0.000060,571.437666,-15.381113,0,0,0,0
123.059013,-0.105371,-0.003062,-0.034797,-0.005645,-0.000024,0.037326,0.000000,0.000732,-0.001465,-0.000194,0.234080,-0.000060,571.437666,-15.381113,0,0,0,0
123.068779,-0.105379,-0.003063,-0.034797,-0.005645,-0.000024,0.037326,0.000000,0.000732,-0.001465,-0.000194,0.234080,-0.000060,571.437666,-15.381113,0,0,0,0
123.078552,-0.105387,-0.003063,-0.034797,-0.005645,-0.000024,0.037326,0.000000,0.000732,-0.001465,-0.000194,0.234080,-0.000060,571.437666,-15.381113,0,0,0,0
123.088326,-0.105396,-0.003063,-0.034797,-0.005645,-0.000024,0.037326,0.000000,0.000732,-0.001465,-0.000194,0.234080,-0.000060,571.437666,-15.381113,0,0,0,0
123.098091,-0.105404,-0.003063,-0.034797,-0.005645,-0.000024,0.037326,0.000000,0.000732,-0.001465,-0.000194,0.234080,-0.000060,571.437666,-15.381113,0,0,0,0
123.107864,-0.105413,-0.003064,-0.034797,-0.005645,-0.000024,0.037326,0.000000,0.000732,-0.001465,-0.000194,0.234080,-0.000060,571.437666,-15.381113,0,0,0,0
123.117630,-0.105421,-0.003064,-0.034797,-0.005645,-0.000024,0.037326,0.000000,0.000732,-0.001465,-0.000194,0.234080,-0.000060,571.437666,-15.381113,0,0,0,0
123.127403,-0.105429,-0.003064,-0.034797,-0.005645,-0.000024,0.037326,0.000000,0.000732,-0.001465,-0.000194,0.234080,-0.000060,571.437666,-15.381113,0,0,0,0
123.137169,-0.105438,-0.003064,-0.034797,-0.005645,-0.000024,0.037326,0.000000,0.000732,-0.001465,-0.000194,0.234080,-0.000060,571.437666,-15.381113,0,0,0,0
123.146942,-0.105446,-0.003065,-0.034797,-0.005645,-0.000024,0.037326,0.000000,0.000732,-0.001465,-0.000194,0.234080,-0.000060,548.803671,26.292055,0,0,0,0
123.156715,-0.105454,-0.003065,-0.034797,-0.005645,-0.000024,0.037326,0.000000,0.000732,-0.001465,-0.000194,0.234080,-0.000060,548.803671,26.292055,0,0,0,0
123.166481,-0.105463,-0.003065,-0.034797,-0.005645,-0.000024,0.037326,0.000000,0.000732,-0.001465,-0.000194,0.234080,-0.000060,548.803671,26.292055,0,0,0,0
123.176254,-0.105471,-0.003065,-0.034797,-0.005645,-0.000024,0.037326,0.000000,0.000732,-0.001465,-0.000194,0.234080,-0.000060,548.803671,26.292055,0,0,0,0
123.186020,-0.105479,-0.003066,-0.034797,-0.005645,-0.000024,0.037326,0.000000,0.000732,-0.001465,-0.000194,0.234080,-0.000060,548.803671,26.292055,0,0,0,0
123.195793,-0.105488,-0.003066,-0.034797,-0.005645,-0.000024,0.037326,0.000000,0.000732,-0.001465,-0.000194,0.234080,-0.000060,548.803671,26.292055,0,0,0,0
123.205559,-0.105496,-0.003066,-0.034797,-0.005645,-0.000024,0.037326,0.000000,0.000732,-0.001465,-0.000194,0.234080,-0.000060,548.803671,26.292055,0,0,0,0
123.215332,-0.105505,-0.003067,-0.034797,-0.005645,-0.000024,0.037326,0.000000,0.000732,-0.001465,-0.000194,0.234080,-0.000060,689.546451,-16.987078,0,0,0,0
123.225105,-0.105513,-0.003067,-0.034797,-0.005645,-0.000024,0.037326,0.000000,0.000732,-0.001465,-0.000194,0.234080,-0.000060,689.546451,-16.987078,0,0,0,0
123.234871,-0.105521,-0.003067,-0.034797,-0.005645,-0.000024,0.037326,0.000000,0.000732,-0.001465,-0.000194,0.234080,-0.000060,689.546451,-16.987078,0,0,0,0
123.244644,-0.105530,-0.003067,-0.034797,-0.005645,-0.000024,0.037326,0.000000,0.000732,-0.001465,-0.000194,0.234080,-0.000060,689.546451,-16.987078,0,0,0,0
123.254410,-0.105538,-0.003068,-0.034797,-0.005645,-0.000024,0.037326,0.000000,0.000732,-0.001465,-0.000194,0.234080,-0.000060,689.546451,-16.987078,0,0,0,0
123.264183,-0.105546,-0.003068,-0.034797,-0.005645,-0.000024,0.037326,0.000000,0.000732,-0.001465,-0.000194,0.234080,-0.000060,689.546451,-16.987078,0,0,0,0
123.273949,-0.105555,-0.003068,-0.034797,-0.005645,-0.000024,0.037326,0.000000,0.000732,-0.001465,-0.000194,0.234080,-0.000060,689.546451,-16.987078,0,0,0,0
123.283722,-0.105563,-0.003068,-0.034797,-0.005645,-0.000024,0.037326,0.000000,0.000732,-0.001465,-0.000194,0.234080,-0.000060,689.546451,-16.987078,0,0,0,0
123.293495,-0.105572,-0.003069,-0.034797,-0.005645,-0.000024,0.037326,0.000000,0.000732,-0.001465,-0.000195,0.234080,-0.000060,689.546451,-16.987078,0,0,0,0
123.303261,-0.105580,-0.003069,-0.034797,-0.005645,-0.000024,0.037326,0.000000,0.000732,-0.001465,-0.000195,0.234080,-0.000060,689.546451,-16.987078,0,0,0,0
