time,pos_x,pos_y,pos_z,vel_x,vel_y,vel_z,att_phi,att_theta,att_psi,rate_p,rate_q,rate_r,Optical flow difference,Estimated divergence,cmd_thrust,cmd_roll,cmd_pitch,cmd_yaw
131.695694,-0.112773,-0.003296,-0.034797,-0.005645,-0.000024,0.037326,0.000000,0.000732,-0.001465,-0.000196,0.234080,-0.000059,455.721636,8.926066,0,0,0,0
131.705460,-0.112781,-0.003296,-0.034797,-0.005645,-0.000024,0.037326,0.000000,0.000732,-0.001465,-0.000196,0.234080,-0.000059,455.721636,8.926066,0,0,0,0
131.715225,-0.112790,-0.003296,-0.034797,-0.005645,-0.000024,0.037326,0.000000,0.000732,-0.001465,-0.000196,0.234080,-0.000059,455.721636,8.926066,0,0,0,0
131.725006,-0.112798,-0.003297,-0.034797,-0.005645,-0.000024,0.037326,0.000000,0.000732,-0.001465,-0.000196,0.234080,-0.000059,455.721636,8.926066,0,0,0,0
131.734772,-0.112807,-0.003297,-0.034797,-0.005645,-0.000024,0.037326,0.000000,0.000732,-0.001465,-0.000196,0.234080,-0.000059,455.721636,8.926066,0,0,0,0
131.744537,-0.112815,-0.003297,-0.034797,-0.005645,-0.000024,0.037326,0.000000,0.000732,-0.001465,-0.000196,0.234080,-0.000059,455.721636,8.926066,0,0,0,0
131.754318,-0.112823,-0.003297,-0.034797,-0.005645,-0.000024,0.037326,0.000000,0.000732,-0.001465,-0.000196,0.234080,-0.000059,455.721636,8.926066,0,0,0,0
131.764084,-0.112832,-0.003298,-0.034797,-0.005645,-0.000024,0.037326,0.000000,0.000732,-0.001465,-0.000196,0.234080,-0.000059,455.721636,8.926066,0,0,0,0
131.773849,-0.112840,-0.003298,-0.034797,-0.005645,-0.000024,0.037326,0.000000,0.000732,-0.001465,-0.000196,0.234080,-0.000059,149.211857,7.121884,0,0,0,0
131.783615,-0.112848,-0.003298,-0.034797,-0.005645,-0.000024,0.037326,0.000000,0.000732,-0.001465,-0.000196,0.234080,-0.000059,149.211857,7.121884,0,0,0,0
131.793396,-0.112857,-0.003298,-0.034797,-0.005645,-0.000024,0.037326,0.000000,0.000732,-0.001465,-0.000196,0.234080,-0.000059,149.211857,7.121884,0,0,0,0
131.803162,-0.112865,-0.003299,-0.034797,-0.005645,-0.000024,0.037326,0.000000,0.000732,-0.001465,-0.000196,0.234080,-0.000059,149.211857,7.121884,0,0,0,0
131.812927,-0.112874,-0.003299,-0.034797,-0.005645,-0.000024,0.037326,0.000000,0.000732,-0.001465,-0.000196,0.234080,-0.000059,149.211857,7.121884,0,0,0,0
131.822708,-0.112882,-0.003299,-0.034797,-0.005645,-0.000024,0.037326,0.000000,0.000732,-0.001465,-0.000196,0.234080,-0.000059,149.211857,7.121884,0,0,0,0
131.832474,-0.112890,-0.003299,-0.034797,-0.005645,-0.000024,0.037326,0.000000,0.000732,-0.001465,-0.000196,0.234080,-0.000059,667.898941,-26.790430,0,0,0,0
131.842239,-0.112899,-0.003300,-0.034797,-0.005645,-0.000024,0.037326,0.000000,0.000732,-0.001465,-0.000196,0.234080,-0.000059,667.898941,-26.790430,0,0,0,0
131.852005,-0.112907,-0.003300,-0.034797,-0.005645,-0.000024,0.037326,0.000000,0.000732,-0.001465,-0.000196,0.234080,-0.000059,667.898941,-26.790430,0,0,0,0
131.861786,-0.112915,-0.003300,-0.034797,-0.005645,-0.000024,0.037326,0.000000,0.000732,-0.001465,-0.000196,0.234080,-0.000059,667.898941,-26.790430,0,0,0,0
131.871552,-0.112924,-0.003301,-0.034797,-0.005645,-0.000024,0.037326,0.000000,0.000732,-0.001465,-0.000196,0.234080,-0.000059,667.898941,-26.790430,0,0,0,0
131.881317,-0.112932,-0.003301,-0.034797,-0.005645,-0.000024,0.037326,0.000000,0.000732,-0.001465,-0.000196,0.234080,-0.000059,667.898941,-26.790430,0,0,0,0
131.891098,-0.112941,-0.003301,-0.034797,-0.005645,-0.000024,0.037326,0.000000,0.000732,-0.001465,-0.000196,0.234080,-0.000059,667.898941,-26.790430,0,0,0,0
131.900864,-0.112949,-0.003301,-0.034797,-0.005645,-0.000024,0.037326,0.000000,0.000732,-0.001465,-0.000196,0.234080,-0.000059,667.898941,-26.790430,0,0,0,0
131.910629,-0.112957,-0.003302,-0.034797,-0.005645,-0.000024,0.037326,0.000000,0.000732,-0.001465,-0.000196,0.234080,-0.000059,667.898941,-26.790430,0,0,0,0
131.920395,-0.112966,-0.003302,-0.034797,-0.005645,-0.000024,0.037326,0.000000,0.000732,-0.001465,-0.000196,0.234080,-0.000059,667.898941,-26.790430,0,0,0,0
131.930176,-0.112974,-0.003302,-0.034797,-0.005645,-0.000024,0.037326,0.000000,0.000732,-0.001465,-0.000196,0.234080,-0.000059,667.898941,-26.790430,0,0,0,0
131.939941,-0.112982,-0.003302,-0.034797,-0.005645,-0.000024,0.037326,0.000000,0.000732,-0.001465,-0.000196,0.234080,-0.000059,667.898941,-26.790430,0,0,0,0
131.949707,-0.112991,-0.003303,-0.034797,-0.005645,-0.000024,0.037326,0.000000,0.000732,-0.001465,-0.000196,0.234080,-0.000059,667.898941,-26.790430,0,0,0,0
131.959488,-0.112999,-0.003303,-0.034797,-0.005645,-0.000024,0.037326,0.000000,0.000732,-0.001465,-0.000196,0.234080,-0.000059,667.898941,-26.790430,0,0,0,0
131.969254,-0.113008,-0.003303,-0.034797,-0.005645,-0.000024,0.037326,0.000000,0.000732,-0.001465,-0.000196,0.234080,-0.000059,667.898941,-26.790430,0,0,0,0
131.979019,-0.113016,-0.003303,-0.034797,-0.005645,-0.000024,0.037326,0.000000,0.000732,-0.001465,-0.000196,0.234080,-0.000059,-43.623144,29.096636,0,0,0,0
131.988785,-0.113024,-0.003304,-0.034797,-0.005645,-0.000024,0.037326,0.000000,0.000732,-0.001465,-0.000196,0.234080,-0.000059,-43.623144,29.096636,0,0,0,0
131.998566,-0.113033,-0.003304,-0.034797,-0.005645,-0.000024,0.037326,0.000000,0.000732,-0.001465,-0.000196,0.234080,-0.000059,-43.623144,29.096636,0,0,0,0
132.008331,-0.113041,-0.003304,-0.034797,-0.005645,-0.000024,0.037326,0.000000,0.000732,-0.001465,-0.000196,0.234080,-0.000059,-43.623144,29.096636,0,0,0,0
132.018097,-0.113049,-0.003305,-0.034797,-0.005645,-0.000024,0.037326,0.000000,0.000732,-0.001465,-0.000196,0.234080,-0.000059,-43.623144,29.096636,0,0,0,0
132.027878,-0.113058,-0.003305,-0.034797,-0.005645,-0.000024,0.037326,0.000000,0.000732,-0.001465,-0.000196,0.234080,-0.000059,-43.623144,29.096636,0,0,0,0
132.037643,-0.113066,-0.003305,-0.034797,-0.005645,-0.000024,0.037326,0.000000,0.000732,-0.001465,-0.000196,0.234080,-0.000059,-43.623144,29.096636,0,0,0,0
132.047409,-0.113075,-0.003305,-0.034797,-0.005645,-0.000024,0.037326,0.000000,0.000732,-0.001465,-0.000196,0.234080,-0.000059,783.763972,-2.770972,0,0,0,0
132.057175,-0.113083,-0.003306,-0.034797,-0.005645,-0.000024,0.037326,0.000000,0.000732,-0.001465,-0.000196,0.234080,-0.000059,783.763972,-2.770972,0,0,0,0
132.066956,-0.113091,-0.003306,-0.034797,-0.005645,-0.000024,0.037326,0.000000,0.000732,-0.001465,-0.000196,0.234080,-0.000059,783.763972,-2.770972,0,0,0,0
132.076721,-0.113100,-0.003306,-0.034797,-0.005645,-0.000024,0.037326,0.000000,0.000732,-0.001465,-0.000196,0.234080,-0.000059,783.763972,-2.770972,0,0,0,0
132.086487,-0.113108,-0.003306,-0.034797,-0.005645,-0.000024,0.037326,0.000000,0.000732,-0.001465,-0.000196,0.234080,-0.000059,783.763972,-2.770972,0,0,0,0
132.096268,-0.113116,-0.003307,-0.034797,-0.005645,-0.000024,0.037326,0.000000,0.000732,-0.001465,-0.000196,0.234080,-0.000059,783.763972,-2.770972,0,0,0,0
132.106033,-0.113125,-0.003307,-0.034797,-0.005645,-0.000024,0.037326,0.000000,0.000732,-0.001465,-0.000196,0.234080,-0.000059,783.763972,-2.770972,0,0,0,0
132.115799,-0.113133,-0.003307,-0.034797,-0.005645,-0.000024,0.037326,0.000000,0.000732,-0.001465,-0.000196,0.234080,-0.000059,783.763972,-2.770972,0,0,0,0
132.125565,-0.113141,-0.003307,-0.034797,-0.005645,-0.000024,0.037326,0.000000,0.000732,-0.001465,-0.000196,0.234080,-0.000059,783.763972,-2.770972,0,0,0,0
132.135345,-0.113150,-0.003308,-0.034797,-0.005645,-0.000024,0.037326,0.000000,0.000732,-0.001465,-0.000196,0.234080,-0.000059,783.763972,-2.770972,0,0,0,0
132.145111,-0.113158,-0.003308,-0.034797,-0.005645,-0.000024,0.037326,0.000000,0.000732,-0.001465,-0.000196,0.234080,-0.000059,783.763972,-2.770972,0,0,0,0
132.154877,-0.113167,-0.003308,-0.034797,-0.005645,-0.000024,0.037326,0.000000,0.000732,-0.001465,-0.000196,0.234080,-0.000059,783.763972,-2.770972,0,0,0,0
132.164658,-0.113175,-0.003309,-0.034797,-0.005645,-0.000024,0.037326,0.000000,0.000732,-0.001465,-0.000196,0.234080,-0.000059,783.763972,-2.770972,0,0,0,0
132.174423,-0.113183,-0.003309,-0.034797,-0.005645,-0.000024,0.037326,0.000000,0.000732,-0.001465,-0.000196,0.234080,-0.000059,213.744077,3.744113,0,0,0,0
132.184189,-0.113192,-0.003309,-0.034797,-0.005645,-0.000024,0.037326,0.000000,0.000732,-0.001465,-0.000196,0.234080,-0.000059,213.744077,3.744113,0,0,0,0
132.193954,-0.113200,-0.003309,-0.034797,-0.005645,-0.000024,0.037326,0.000000,0.000732,-0.001465,-0.000196,0.234080,-0.000059,213.744077,3.744113,0,0,0,0
132.203735,-0.113208,-0.003310,-0.034797,-0.005645,-0.000024,0.037326,0.000000,0.000732,-0.001465,-0.000196,0.234080,-0.000059,213.744077,3.744113,0,0,0,0
132.213501,-0.113217,-0.003310,-0.034797,-0.005645,-0.000024,0.037326,0.000000,0.000732,-0.001465,-0.000196,0.234080,-0.000059,213.744077,3.744113,0,0,0,0
132.223267,-0.113225,-0.003310,-0.034797,-0.005645,-0.000024,0.037326,0.000000,0.000732,-0.001465,-0.000196,0.234080,-0.000059,213.744077,3.744113,0,0,0,0
132.233047,-0.113234,-0.003310,-0.034797,-0.005645,-0.000024,0.037326,0.000000,0.000732,-0.001465,-0.000196,0.234080,-0.000059,213.744077,3.744113,0,0,0,0
132.242813,-0.113242,-0.003311,-0.034797,-0.005645,-0.000024,0.037326,0.000000,0.000732,-0.001465,-0.000196,0.234080,-0.000059,723.531680,18.322199,0,0,0,0
132.252579,-0.113250,-0.003311,-0.034797,-0.005645,-0.000024,0.037326,0.000000,0.000732,-0.001465,-0.000196,0.234080,-0.000059,723.531680,18.322199,0,0,0,0
132.262360,-0.113259,-0.003311,-0.034797,-0.005645,-0.000024,0.037326,0.000000,0.000732,-0.001465,-0.000196,0.234080,-0.000059,723.531680,18.322199,0,0,0,0
132.272125,-0.113267,-0.003311,-0.034797,-0.005645,-0.000024,0.037326,0.000000,0.000732,-0.001465,-0.000196,0.234080,-0.000059,723.531680,18.322199,0,0,0,0
132.281891,-0.113275,-0.003312,-0.034797,-0.005645,-0.000024,0.037326,0.000000,0.000732,-0.001465,-0.000196,0.234080,-0.000059,723.531680,18.322199,0,0,0,0
132.291656,-0.113284,-0.003312,-0.034797,-0.005645,-0.000024,0.037326,0.000000,0.000732,-0.001465,-0.000196,0.234080,-0.000059,723.531680,18.322199,0,0,0,0
132.301437,-0.113292,-0.003312,-0.034797,-0.005645,-0.000024,0.037326,0.000000,0.000732,-0.001465,-0.000196,0.234080,-0.000059,723.531680,18.322199,0,0,0,0
132.311203,-0.113301,-0.003312,-0.034797,-0.005645,-0.000024,0.037326,0.000000,0.000732,-0.001465,-0.000196,0.234080,-0.000059,723.531680,18.322199,0,0,0,0
132.320969,-0.113309,-0.003313,-0.034797,-0.005645,-0.000024,0.037326,0.000000,0.000732,-0.001465,-0.000196,0.234080,-0.000059,723.531680,18.322199,0,0,0,0
132.330750,-0.113317,-0.003313,-0.034797,-0.005645,-0.000024,0.037326,0.000000,0.000732,-0.001465,-0.000196,0.234080,-0.000059,723.531680,18.322199,0,0,0,0
132.340515,-0.113326,-0.003313,-0.034797,-0.005645,-0.000024,0.037326,0.000000,0.000732,-0.001465,-0.000196,0.234080,-0.000059,723.531680,18.322199,0,0,0,0
132.350281,-0.113334,-0.003314,-0.034797,-0.005645,-0.000024,0.037326,0.000000,0.000732,-0.001465,-0.000196,0.234080,-0.000059,723.531680,18.322199,0,0,0,0
132.360046,-0.113342,-0.003314,-0.034797,-0.005645,-0.000024,0.037326,0.000000,0.000732,-0.001465,-0.000196,0.234080,-0.000059,723.531680,18.322199,0,0,0,0
132.369827,-0.113351,-0.003314,-0.034797,-0.005645,-0.000024,0.037326,0.000000,0.000732,-0.001465,-0.000196,0.234080,-0.000059,723.531680,18.322199,0,0,0,0
132.379593,-0.113359,-0.003314,-0.034797,-0.005645,-0.000024,0.037326,0.000000,0.000732,-0.001465,-0.000196,0.234080,-0.000059,191.261604,0.811748,0,0,0,0
132.389359,-0.113368,-0.003315,-0.034797,-0.005645,-0.000024,0.037326,0.000000,0.000732,-0.001465,-0.000196,0.234080,-0.000059,191.261604,0.811748,0,0,0,0
132.399139,-0.113376,-0.003315,-0.034797,-0.005645,-0.000024,0.037326,0.000000,0.000732,-0.001465,-0.000196,0.234080,-0.000059,191.261604,0.811748,0,0,0,0
132.408905,-0.113384,-0.003315,-0.034797,-0.005645,-0.000024,0.037326,0.000000,0.000732,-0.001465,-0.000196,0.234080,-0.000059,191.261604,0.811748,0,0,0,0
132.418671,-0.113393,-0.003315,-0.034797,-0.005645,-0.000024,0.037326,0.000000,0.000732,-0.001465,-0.000196,0.234080,-0.000059,191.261604,0.811748,0,0,0,0
132.428436,-0.113401,-0.003316,-0.034797,-0.005645,-0.000024,0.037326,0.000000,0.000732,-0.001465,-0.000196,0.234080,-0.000059,191.261604,0.811748,0,0,0,0
132.438217,-0.113409,-0.003316,-0.034797,-0.005645,-0.000024,0.037326,0.000000,0.000732,-0.001465,-0.000196,0.234080,-0.000059,191.261604,0.811748,0,0,0,0
132.447983,-0.113418,-0.003316,-0.034797,-0.005645,-0.000024,0.037326,0.000000,0.000732,-0.001465,-0.000196,0.234080,-0.000059,567.383614,10.075489,0,0,0,0
132.457748,-0.113426,-0.003316,-0.034797,-0.005645,-0.000024,0.037326,0.000000,0.000732,-0.001465,-0.000196,0.234080,-0.000059,567.383614,10.075489,0,0,0,0
132.467529,-0.113435,-0.003317,-0.034797,-0.005645,-0.000024,0.037326,0.000000,0.000732,-0.001465,-0.000196,0.234080,-0.000059,567.383614,10.075489,0,0,0,0
132.477295,-0.113443,-0.003317,-0.034797,-0.005645,-0.000024,0.037326,0.000000,0.000732,-0.001465,-0.000196,0.234080,-0.000059,567.383614,10.075489,0,0,0,0
132.487061,-0.113451,-0.003317,-0.034797,-0.005645,-0.000024,0.037326,0.000000,0.000732,-0.001465,-0.000196,0.234080,-0.000059,567.383614,10.075489,0,0,0,0
132.496826,-0.113460,-0.003318,-0.034797,-0.005645,-0.000024,0.037326,0.000000,0.000732,-0.001465,-0.000196,0.234080,-0.000059,567.383614,10.075489,0,0,0,0
132.506607,-0.113468,-0.003318,-0.034797,-0.005645,-0.000024,0.037326,0.000000,0.000732,-0.001465,-0.000196,0.234080,-0.000059,567.383614,10.075489,0,0,0,0
132.516373,-0.113476,-0.003318,-0.034797,-0.005645,-0.000024,0.037326,0.000000,0.000732,-0.001465,-0.000196,0.234080,-0.000059,567.383614,10.075489,0,0,0,0
132.526138,-0.113485,-0.003318,-0.034797,-0.005645,-0.000024,0.037326,0.000000,0.000732,-0.001465,-0.000196,0.234080,-0.000059,567.383614,10.075489,0,0,0,0
132.535919,-0.113493,-0.003319,-0.034797,-0.005645,-0.000024,0.037326,0.000000,0.000732,-0.001465,-0.000196,0.234080,-0.000059,567.383614,10.075489,0,0,0,0
132.545685,-0.113502,-0.003319,-0.034797,-0.005645,-0.000024,0.037326,0.000000,0.000732,-0.001465,-0.000196,0.234080,-0.000059,567.383614,10.075489,0,0,0,0
132.555450,-0.113510,-0.003319,-0.034797,-0.005645,-0.000024,0.037326,0.000000,0.000732,-0.001465,-0.000196,0.234080,-0.000059,567.383614,10.075489,0,0,0,0
132.565216,-0.113518,-0.003319,-0.034797,-0.005645,-0.000024,0.037326,0.000000,0.000732,-0.001465,-0.000196,0.234080,-0.000059,567.383614,10.075489,0,0,0,0
132.574997,-0.113527,-0.003320,-0.034797,-0.005645,-0.000024,0.037326,0.000000,0.000732,-0.001465,-0.000196,0.234080,-0.000059,135.388492,-10.607671,0,0,0,0
132.584763,-0.113535,-0.003320,-0.034797,-0.005645,-0.000024,0.037326,0.000000,0.000732,-0.001465,-0.000196,0.234080,-0.000059,135.388492,-10.607671,0,0,0,0
132.594528,-0.113543,-0.003320,-0.034797,-0.005645,-0.000024,0.037326,0.000000,0.000732,-0.001465,-0.000196,0.234080,-0.000059,135.388492,-10.607671,0,0,0,0
132.604309,-0.113552,-0.003320,-0.034797,-0.005645,-0.000024,0.037326,0.000000,0.000732,-0.001465,-0.000196,0.234080,-0.000059,135.388492,-10.607671,0,0,0,0
132.614075,-0.113560,-0.003321,-0.034797,-0.005645,-0.000024,0.037326,0.000000,0.000732,-0.001465,-0.000196,0.234080,-0.000059,135.388492,-10.607671,0,0,0,0
132.623840,-0.113569,-0.003321,-0.034797,-0.005645,-0.000024,0.037326,0.000000,0.000732,-0.001465,-0.000196,0.234080,-0.000059,135.388492,-10.607671,0,0,0,0
132.633606,-0.113577,-0.003321,-0.034797,-0.005645,-0.000024,0.037326,0.000000,0.000732,-0.001465,-0.000196,0.234080,-0.000059,135.388492,-10.607671,0,0,0,0
132.643387,-0.113585,-0.003322,-0.034797,-0.005645,-0.000024,0.037326,0.000000,0.000732,-0.001465,-0.000196,0.234080,-0.000059,151.007492,0.632418,0,0,0,0
132.653152,-0.113594,-0.003322,-0.034797,-0.005645,-0.000024,0.037326,0.000000,0.000732,-0.001465,-0.000196,0.234080,-0.000059,151.007492,0.632418,0,0,0,0
132.662918,-0.113602,-0.003322,-0.034797,-0.005645,-0.000024,0.037326,0.000000,0.000732,-0.001465,-0.000196,0.234080,-0.000059,151.007492,0.632418,0,0,0,0
132.672699,-0.113610,-0.003322,-0.034797,-0.005645,-0.000024,0.037326,0.000000,0.000732,-0.001465,-0.000196,0.234080,-0.000059,151.007492,0.632418,0,0,0,0
132.682465,-0.113619,-0.003323,-0.034797,-0.005645,-0.000024,0.037326,0.000000,0.000732,-0.001465,-0.000196,0.234080,-0.000059,151.007492,0.632418,0,0,0,0
132.692230,-0.113627,-0.003323,-0.034797,-0.005645,-0.000024,0.037326,0.000000,0.000732,-0.001465,-0.000196,0.234080,-0.000059,151.007492,0.632418,0,0,0,0
132.701996,-0.113636,-0.003323,-0.034797,-0.005645,-0.000024,0.037326,0.000000,0.000732,-0.001465,-0.000196,0.234080,-0.000059,151.007492,0.632418,0,0,0,0
132.711777,-0.113644,-0.003323,-0.034797,-0.005645,-0.000024,0.037326,0.000000,0.000732,-0.001465,-0.000196,0.234080,-0.000059,151.007492,0.632418,0,0,0,0
132.721542,-0.113652,-0.003324,-0.034797,-0.005645,-0.000024,0.037326,0.000000,0.000732,-0.001465,-0.000196,0.234080,-0.000059,151.007492,0.632418,0,0,0,0
132.731308,-0.113661,-0.003324,-0.034797,-0.005645,-0.000024,0.037326,0.000000,0.000732,-0.001465,-0.000196,0.234080,-0.000059,151.007492,0.632418,0,0,0,0
132.741089,-0.113669,-0.003324,-0.034797,-0.005645,-0.000024,0.037326,0.000000,0.000732,-0.001465,-0.000196,0.234080,-0.000059,151.007492,0.632418,0,0,0,0
132.750854,-0.113677,-0.003324,-0.034797,-0.005645,-0.000024,0.037326,0.000000,0.000732,-0.001465,-0.000196,0.234080,-0.000059,151.007492,0.632418,0,0,0,0
132.760620,-0.113686,-0.003325,-0.034797,-0.005645,-0.000024,0.037326,0.000000,0.000732,-0.001465,-0.000196,0.234080,-0.000059,151.007492,0.632418,0,0,0,0
132.770386,-0.113694,-0.003325,-0.034797,-0.005645,-0.000024,0.037326,0.000000,0.000732,-0.001465,-0.000196,0.234080,-0.000059,154.700302,-10.081099,0,0,0,0
132.780167,-0.113703,-0.003325,-0.034797,-0.005645,-0.000024,0.037326,0.000000,0.000732,-0.001465,-0.000196,0.234080,-0.000059,154.700302,-10.081099,0,0,0,0
132.789932,-0.113711,-0.003326,-0.034797,-0.005645,-0.000024,0.037326,0.000000,0.000732,-0.001465,-0.000196,0.234080,-0.000059,154.700302,-10.081099,0,0,0,0
132.799698,-0.113719,-0.003326,-0.034797,-0.005645,-0.000024,0.037326,0.000000,0.000732,-0.001465,-0.000196,0.234080,-0.000059,154.700302,-10.081099,0,0,0,0
132.809479,-0.113728,-0.003326,-0.034797,-0.005645,-0.000024,0.037326,0.000000,0.000732,-0.001465,-0.000196,0.234080,-0.000059,154.700302,-10.081099,0,0,0,0
132.819244,-0.113736,-0.003326,-0.034797,-0.005645,-0.000024,0.037326,0.000000,0.000732,-0.001465,-0.000196,0.234080,-0.000059,154.700302,-10.081099,0,0,0,0
132.829010,-0.113744,-0.003327,-0.034797,-0.005645,-0.000024,0.037326,0.000000,0.000732,-0.001465,-0.000196,0.234080,-0.000059,154.700302,-10.081099,0,0,0,0
132.838776,-0.113753,-0.003327,-0.034797,-0.005645,-0.000024,0.037326,0.000000,0.000732,-0.001465,-0.000196,0.234080,-0.000059,349.564928,-6.307930,0,0,0,0
132.848557,-0.113761,-0.003327,-0.034797,-0.005645,-0.000024,0.037326,0.000000,0.000732,-0.001465,-0.000196,0.234080,-0.000059,349.564928,-6.307930,0,0,0,0
132.858322,-0.113770,-0.003327,-0.034797,-0.005645,-0.000024,0.037326,0.000000,0.000732,-0.001465,-0.000196,0.234080,-0.000059,349.564928,-6.307930,0,0,0,0
132.868088,-0.113778,-0.003328,-0.034797,-0.005645,-0.000024,0.037326,0.000000,0.000732,-0.001465,-0.000196,0.234080,-0.000059,349.564928,-6.307930,0,0,0,0
132.877869,-0.113786,-0.003328,-0.034797,-0.005645,-0.000024,0.037326,0.000000,0.000732,-0.001465,-0.000196,0.234080,-0.000059,349.564928,-6.307930,0,0,0,0
132.887634,-0.113795,-0.003328,-0.034797,-0.005645,-0.000024,0.037326,0.000000,0.000732,-0.001465,-0.000197,0.234080,-0.000059,349.564928,-6.307930,0,0,0,0
132.897400,-0.113803,-0.003328,-0.034797,-0.005645,-0.000024,0.037326,0.000000,0.000732,-0.001465,-0.000197,0.234080,-0.000059,349.564928,-6.307930,0,0,0,0
132.907166,-0.113811,-0.003329,-0.034797,-0.005645,-0.000024,0.037326,0.000000,0.000732,-0.001465,-0.000197,0.234080,-0.000059,349.564928,-6.307930,0,0,0,0
132.916946,-0.113820,-0.003329,-0.034797,-0.005645,-0.000024,0.037326,0.000000,0.000732,-0.001465,-0.000197,0.234080,-0.000059,349.564928,-6.307930,0,0,0,0
132.926712,-0.113828,-0.003329,-0.034797,-0.005645,-0.000024,0.037326,0.000000,0.000732,-0.001465,-0.000197,0.234080,-0.000059,349.564928,-6.307930,0,0,0,0
132.936478,-0.113837,-0.003329,-0.034797,-0.005645,-0.000024,0.037326,0.000000,0.000732,-0.001465,-0.000197,0.234080,-0.000059,349.564928,-6.307930,0,0,0,0
132.946259,-0.113845,-0.003330,-0.034797,-0.005645,-0.000024,0.037326,0.000000,0.000732,-0.001465,-0.000197,0.234080,-0.000059,349.564928,-6.307930,0,0,0,0
132.956024,-0.113853,-0.003330,-0.034797,-0.005645,-0.000024,0.037326,0.000000,0.000732,-0.001465,-0.000197,0.234080,-0.000059,349.564928,-6.307930,0,0,0,0
132.965790,-0.113862,-0.003330,-0.034797,-0.005645,-0.000024,0.037326,0.000000,0.000732,-0.001465,-0.000197,0.234080,-0.000059,349.564928,-6.307930,0,0,0,0
132.975555,-0.113870,-0.003331,-0.034797,-0.005645,-0.000024,0.037326,0.000000,0.000732,-0.001465,-0.000197,0.234080,-0.000059,230.027182,31.795141,0,0,0,0
132.985336,-0.113878,-0.003331,-0.034797,-0.005645,-0.000024,0.037326,0.000000,0.000732,-0.001465,-0.000197,0.234080,-0.000059,230.027182,31.795141,0,0,0,0
132.995102,-0.113887,-0.003331,-0.034797,-0.005645,-0.000024,0.037326,0.000000,0.000732,-0.001465,-0.000197,0.234080,-0.000059,230.027182,31.795141,0,0,0,0
133.004868,-0.113895,-0.003331,-0.034797,-0.005645,-0.000024,0.037326,0.000000,0.000732,-0.001465,-0.000197,0.234080,-0.000059,230.027182,31.795141,0,0,0,0
133.014648,-0.113904,-0.003332,-0.034797,-0.005645,-0.000024,0.037326,0.000000,0.000732,-0.001465,-0.000197,0.234080,-0.000059,230.027182,31.795141,0,0,0,0
133.024414,-0.113912,-0.003332,-0.034797,-0.005645,-0.000024,0.037326,0.000000,0.000732,-0.001465,-0.000197,0.234080,-0.000059,230.027182,31.795141,0,0,0,0
133.034180,-0.113920,-0.003332,-0.034797,-0.005645,-0.000024,0.037326,0.000000,0.000732,-0.001465,-0.000197,0.234080,-0.000059,230.027182,31.795141,0,0,0,0
133.043945,-0.113929,-0.003332,-0.034797,-0.005645,-0.000024,0.037326,0.000000,0.000732,-0.001465,-0.000197,0.234080,-0.000059,894.283438,-21.452143,0,0,0,0
133.053726,-0.113937,-0.003333,-0.034797,-0.005645,-0.000024,0.037326,0.000000,0.000732,-0.001465,-0.000197,0.234080,-0.000059,894.283438,-21.452143,0,0,0,0
133.063492,-0.113945,-0.003333,-0.034797,-0.005645,-0.000024,0.037326,0.000000,0.000732,-0.001465,-0.000197,0.234080,-0.000059,894.283438,-21.452143,0,0,0,0
133.073257,-0.113954,-0.003333,-0.034797,-0.005645,-0.000024,0.037326,0.000000,0.000732,-0.001465,-0.000197,0.234080,-0.000059,894.283438,-21.452143,0,0,0,0
133.083038,-0.113962,-0.003333,-0.034797,-0.005645,-0.000024,0.037326,0.000000,0.000732,-0.001465,-0.000197,0.234080,-0.000059,894.283438,-21.452143,0,0,0,0
133.092804,-0.113970,-0.003334,-0.034797,-0.005645,-0.000024,0.037326,0.000000,0.000732,-0.001465,-0.000197,0.234080,-0.000059,894.283438,-21.452143,0,0,0,0
133.102570,-0.113979,-0.003334,-0.034797,-0.005645,-0.000024,0.037326,0.000000,0.000732,-0.001465,-0.000197,0.234080,-0.000059,894.283438,-21.452143,0,0,0,0
133.112335,-0.113987,-0.003334,-0.034797,-0.005645,-0.000024,0.037326,0.000000,0.000732,-0.001465,-0.000197,0.234080,-0.000059,894.283438,-21.452143,0,0,0,0
133.122116,-0.113996,-0.003335,-0.034797,-0.005645,-0.000024,0.037326,0.000000,0.000732,-0.001465,-0.000197,0.234080,-0.000059,894.283438,-21.452143,0,0,0,0
133.131882,-0.114004,-0.003335,-0.034797,-0.005645,-0.000024,0.037326,0.000000,0.000732,-0.001465,-0.000197,0.234080,-0.000059,894.283438,-21.452143,0,0,0,0
133.141647,-0.114012,-0.003335,-0.034797,-0.005645,-0.000024,0.037326,0.000000,0.000732,-0.001465,-0.000197,0.234080,-0.000059,894.283438,-21.452143,0,0,0,0
133.151428,-0.114021,-0.003335,-0.034797,-0.005645,-0.000024,0.037326,0.000000,0.000732,-0.001465,-0.000197,0.234080,-0.000059,894.283438,-21.452143,0,0,0,0
133.161194,-0.114029,-0.003336,-0.034797,-0.005645,-0.000024,0.037326,0.000000,0.000732,-0.001465,-0.000197,0.234080,-0.000059,894.283438,-21.452143,0,0,0,0
133.170959,-0.114037,-0.003336,-0.034797,-0.005645,-0.000024,0.037326,0.000000,0.000732,-0.001465,-0.000197,0.234080,-0.000059,121.580824,11.391092,0,0,0,0
133.180725,-0.114046,-0.003336,-0.034797,-0.005645,-0.000024,0.037326,0.000000,0.000732,-0.001465,-0.000197,0.234080,-0.000059,121.580824,11.391092,0,0,0,0
133.190506,-0.114054,-0.003336,-0.034797,-0.005645,-0.000024,0.037326,0.000000,0.000732,-0.001465,-0.000197,0.234080,-0.000059,121.580824,11.391092,0,0,0,0
133.200272,-0.114063,-0.003337,-0.034797,-0.005645,-0.000024,0.037326,0.000000,0.000732,-0.001465,-0.000197,0.234080,-0.000059,121.580824,11.391092,0,0,0,0
133.210037,-0.114071,-0.003337,-0.034797,-0.005645,-0.000024,0.037326,0.000000,0.000732,-0.001465,-0.000197,0.234080,-0.000059,121.580824,11.391092,0,0,0,0
133.219818,-0.114079,-0.003337,-0.034797,-0.005645,-0.000024,0.037326,0.000000,0.000732,-0.001465,-0.000197,0.234080,-0.000059,121.580824,11.391092,0,0,0,0
133.229584,-0.114088,-0.003337,-0.034797,-0.005645,-0.000024,0.037326,0.000000,0.000732,-0.001465,-0.000197,0.234080,-0.000059,121.580824,11.391092,0,0,0,0
133.239349,-0.114096,-0.003338,-0.034797,-0.005645,-0.000024,0.037326,0.000000,0.000732,-0.001465,-0.000197,0.234080,-0.000059,571.823619,1.361476,0,0,0,0
133.249115,-0.114104,-0.003338,-0.034797,-0.005645,-0.000024,0.037326,0.000000,0.000732,-0.001465,-0.000197,0.234080,-0.000059,571.823619,1.361476,0,0,0,0
133.258896,-0.114113,-0.003338,-0.034797,-0.005645,-0.000024,0.037326,0.000000,0.000732,-0.001465,-0.000197,0.234080,-0.000059,571.823619,1.361476,0,0,0,0
133.268661,-0.114121,-0.003339,-0.034797,-0.005645,-0.000024,0.037326,0.000000,0.000732,-0.001465,-0.000197,0.234080,-0.000059,571.823619,1.361476,0,0,0,0
133.278427,-0.114130,-0.003339,-0.034797,-0.005645,-0.000024,0.037326,0.000000,0.000732,-0.001465,-0.000197,0.234080,-0.000059,571.823619,1.361476,0,0,0,0
133.288208,-0.114138,-0.003339,-0.034797,-0.005645,-0.000024,0.037326,0.000000,0.000732,-0.001465,-0.000197,0.234080,-0.000059,571.823619,1.361476,0,0,0,0
133.297974,-0.114146,-0.003339,-0.034797,-0.005645,-0.000024,0.037326,0.000000,0.000732,-0.001465,-0.000197,0.234080,-0.000059,571.823619,1.361476,0,0,0,0
133.307739,-0.114155,-0.003340,-0.034797,-0.005645,-0.000023,0.037326,0.000000,0.000732,-0.001465,-0.000197,0.234080,-0.000059,571.823619,1.361476,0,0,0,0
133.317505,-0.114163,-0.003340,-0.034797,-0.005645,-0.000023,0.037326,0.000000,0.000732,-0.001465,-0.000197,0.234080,-0.000059,571.823619,1.361476,0,0,0,0
133.327286,-0.114171,-0.003340,-0.034797,-0.005645,-0.000023,0.037326,0.000000,0.000732,-0.001465,-0.000197,0.234080,-0.000059,571.823619,1.361476,0,0,0,0
133.337051,-0.114180,-0.003340,-0.034797,-0.005645,-0.000023,0.037326,0.000000,0.000732,-0.001465,-0.000197,0.234080,-0.000059,571.823619,1.361476,0,0,0,0
133.346817,-0.114188,-0.003341,-0.034797,-0.005645,-0.000023,0.037326,0.000000,0.000732,-0.001465,-0.000197,0.234080,-0.000059,571.823619,1.361476,0,0,0,0
133.356598,-0.114197,-0.003341,-0.034797,-0.005645,-0.000023,0.037326,0.000000,0.000732,-0.001465,-0.000197,0.234080,-0.000059,571.823619,1.361476,0,0,0,0
133.366364,-0.114205,-0.003341,-0.034797,-0.005645,-0.000023,0.037326,0.000000,0.000732,-0.001465,-0.000197,0.234080,-0.000059,571.823619,1.361476,0,0,0,0
133.376129,-0.114213,-0.003341,-0.034797,-0.005645,-0.000023,0.037326,0.000000,0.000732,-0.001465,-0.000197,0.234080,-0.000059,634.921793,5.753777,0,0,0,0
133.385895,-0.114222,-0.003342,-0.034797,-0.005645,-0.000023,0.037326,0.000000,0.000732,-0.001465,-0.000197,0.234080,-0.000059,634.921793,5.753777,0,0,0,0
133.395676,-0.114230,-0.003342,-0.034797,-0.005645,-0.000023,0.037326,0.000000,0.000732,-0.001465,-0.000197,0.234080,-0.000059,634.921793,5.753777,0,0,0,0
133.405441,-0.114238,-0.003342,-0.034797,-0.005645,-0.000023,0.037326,0.000000,0.000732,-0.001465,-0.000197,0.234080,-0.000059,634.921793,5.753777,0,0,0,0
133.415207,-0.114247,-0.003343,-0.034797,-0.005645,-0.000023,0.037326,0.000000,0.000732,-0.001465,-0.000197,0.234080,-0.000059,634.921793,5.753777,0,0,0,0
133.424988,-0.114255,-0.003343,-0.034797,-0.005645,-0.000023,0.037326,0.000000,0.000732,-0.001465,-0.000197,0.234080,-0.000059,634.921793,5.753777,0,0,0,0
133.434753,-0.114264,-0.003343,-0.034797,-0.005645,-0.000023,0.037326,0.000000,0.000732,-0.001465,-0.000197,0.234080,-0.000059,633.427147,-0.868701,0,0,0,0
133.444519,-0.114272,-0.003343,-0.034797,-0.005645,-0.000023,0.037326,0.000000,0.000732,-0.001465,-0.000197,0.234080,-0.000059,633.427147,-0.868701,0,0,0,0
133.454285,-0.114280,-0.003344,-0.034797,-0.005645,-0.000023,0.037326,0.000000,0.000732,-0.001465,-0.000197,0.234080,-0.000059,633.427147,-0.868701,0,0,0,0
133.464066,-0.114289,-0.003344,-0.034797,-0.005645,-0.000023,0.037326,0.000000,0.000732,-0.001465,-0.000197,0.234080,-0.000059,633.427147,-0.868701,0,0,0,0
133.473831,-0.114297,-0.003344,-0.034797,-0.005645,-0.000023,0.037326,0.000000,0.000732,-0.001465,-0.000197,0.234080,-0.000059,633.427147,-0.868701,0,0,0,0
133.483597,-0.114305,-0.003344,-0.034797,-0.005645,-0.000023,0.037326,0.000000,0.000732,-0.001465,-0.000197,0.234080,-0.000059,633.427147,-0.868701,0,0,0,0
133.493378,-0.114314,-0.003345,-0.034797,-0.005645,-0.000023,0.037326,0.000000,0.000732,-0.001465,-0.000197,0.234080,-0.000059,633.427147,-0.868701,0,0,0,0
133.503143,-0.114322,-0.003345,-0.034797,-0.005645,-0.000023,0.037326,0.000000,0.000732,-0.001465,-0.000197,0.234080,-0.000059,633.427147,-0.868701,0,0,0,0
133.512909,-0.114331,-0.003345,-0.034797,-0.005645,-0.000023,0.037326,0.000000,0.000732,-0.001465,-0.000197,0.234080,-0.000059,633.427147,-0.868701,0,0,0,0
133.522675,-0.114339,-0.003345,-0.034797,-0.005645,-0.000023,0.037326,0.000000,0.000732,-0.001465,-0.000197,0.234080,-0.000059,633.427147,-0.868701,0,0,0,0
133.532455,-0.114347,-0.003346,-0.034797,-0.005645,-0.000023,0.037326,0.000000,0.000732,-0.001465,-0.000197,0.234080,-0.000059,633.427147,-0.868701,0,0,0,0
133.542221,-0.114356,-0.003346,-0.034797,-0.005645,-0.000023,0.037326,0.000000,0.000732,-0.001465,-0.000197,0.234080,-0.000059,633.427147,-0.868701,0,0,0,0
133.551987,-0.114364,-0.003346,-0.034797,-0.005645,-0.000023,0.037326,0.000000,0.000732,-0.001465,-0.000197,0.234080,-0.000059,633.427147,-0.868701,0,0,0,0
133.561768,-0.114372,-0.003347,-0.034797,-0.005645,-0.000023,0.037326,0.000000,0.000732,-0.001465,-0.000197,0.234080,-0.000059,633.427147,-0.868701,0,0,0,0
133.571533,-0.114381,-0.003347,-0.034797,-0.005645,-0.000023,0.037326,0.000000,0.000732,-0.001465,-0.000197,0.234080,-0.000059,890.094657,16.936054,0,0,0,0
133.581299,-0.114389,-0.003347,-0.034797,-0.005645,-0.000023,0.037326,0.000000,0.000732,-0.001465,-0.000197,0.234080,-0.000059,890.094657,16.936054,0,0,0,0
133.591064,-0.114398,-0.003347,-0.034797,-0.005645,-0.000023,0.037326,0.000000,0.000732,-0.001465,-0.000197,0.234080,-0.000059,890.094657,16.936054,0,0,0,0
133.600845,-0.114406,-0.003348,-0.034797,-0.005645,-0.000023,0.037326,0.000000,0.000732,-0.001465,-0.000197,0.234080,-0.000059,890.094657,16.936054,0,0,0,0
133.610611,-0.114414,-0.003348,-0.034797,-0.005645,-0.000023,0.037326,0.000000,0.000732,-0.001465,-0.000197,0.234080,-0.000059,890.094657,16.936054,0,0,0,0
133.620377,-0.114423,-0.003348,-0.034797,-0.005645,-0.000023,0.037326,0.000000,0.000732,-0.001465,-0.000197,0.234080,-0.000059,890.094657,16.936054,0,0,0,0
133.630157,-0.114431,-0.003348,-0.034797,-0.005645,-0.000023,0.037326,0.000000,0.000732,-0.001465,-0.000197,0.234080,-0.000059,890.094657,16.936054,0,0,0,0
133.639923,-0.114439,-0.003349,-0.034797,-0.005645,-0.000023,0.037326,0.000000,0.000732,-0.001465,-0.000197,0.234080,-0.000059,168.738939,-16.492311,0,0,0,0
133.649689,-0.114448,-0.003349,-0.034797,-0.005645,-0.000023,0.037326,0.000000,0.000732,-0.001465,-0.000197,0.234080,-0.000059,168.738939,-16.492311,0,0,0,0
133.659454,-0.114456,-0.003349,-0.034797,-0.005645,-0.000023,0.037326,0.000000,0.000732,-0.001465,-0.000197,0.234080,-0.000059,168.738939,-16.492311,0,0,0,0
133.669235,-0.114465,-0.003349,-0.034797,-0.005645,-0.000023,0.037326,0.000000,0.000732,-0.001465,-0.000197,0.234080,-0.000059,168.738939,-16.492311,0,0,0,0
133.679001,-0.114473,-0.003350,-0.034797,-0.005645,-0.000023,0.037326,0.000000,0.000732,-0.001465,-0.000197,0.234080,-0.000059,168.738939,-16.492311,0,0,0,0
133.688766,-0.114481,-0.003350,-0.034797,-0.005645,-0.000023,0.037326,0.000000,0.000732,-0.001465,-0.000197,0.234080,-0.000059,168.738939,-16.492311,0,0,0,0
133.698547,-0.114490,-0.003350,-0.034797,-0.005645,-0.000023,0.037326,0.000000,0.000732,-0.001465,-0.000197,0.234080,-0.000059,168.738939,-16.492311,0,0,0,0
133.708313,-0.114498,-0.003351,-0.034797,-0.005645,-0.000023,0.037326,0.000000,0.000732,-0.001465,-0.000197,0.234080,-0.000059,168.738939,-16.492311,0,0,0,0
133.718079,-0.114506,-0.003351,-0.034797,-0.005645,-0.000023,0.037326,0.000000,0.000732,-0.001465,-0.000197,0.234080,-0.000059,168.738939,-16.492311,0,0,0,0
133.727859,-0.114515,-0.003351,-0.034797,-0.005645,-0.000023,0.037326,0.000000,0.000732,-0.001465,-0.000197,0.234080,-0.000059,168.738939,-16.492311,0,0,0,0
133.737625,-0.114523,-0.003351,-0.034797,-0.005645,-0.000023,0.037326,0.000000,0.000732,-0.001465,-0.000197,0.234080,-0.000059,168.738939,-16.492311,0,0,0,0
133.747391,-0.114532,-0.003352,-0.034797,-0.005645,-0.000023,0.037326,0.000000,0.000732,-0.001465,-0.000197,0.234080,-0.000059,168.738939,-16.492311,0,0,0,0
133.757156,-0.114540,-0.003352,-0.034797,-0.005645,-0.000023,0.037326,0.000000,0.000732,-0.001465,-0.000197,0.234080,-0.000059,168.738939,-16.492311,0,0,0,0
133.766937,-0.114548,-0.003352,-0.034797,-0.005645,-0.000023,0.037326,0.000000,0.000732,-0.001465,-0.000197,0.234080,-0.000059,168.738939,-16.492311,0,0,0,0
133.776703,-0.114557,-0.003352,-0.034797,-0.005645,-0.000023,0.037326,0.000000,0.000732,-0.001465,-0.000197,0.234080,-0.000059,182.719392,-10.093350,0,0,0,0
133.786469,-0.114565,-0.003353,-0.034797,-0.005645,-0.000023,0.037326,0.000000,0.000732,-0.001465,-0.000197,0.234080,-0.000059,182.719392,-10.093350,0,0,0,0
133.796249,-0.114573,-0.003353,-0.034797,-0.005645,-0.000023,0.037326,0.000000,0.000732,-0.001465,-0.000197,0.234080,-0.000059,182.719392,-10.093350,0,0,0,0
133.806015,-0.114582,-0.003353,-0.034797,-0.005645,-0.000023,0.037326,0.000000,0.000732,-0.001465,-0.000197,0.234080,-0.000059,182.719392,-10.093350,0,0,0,0
133.815781,-0.114590,-0.003353,-0.034797,-0.005645,-0.000023,0.037326,0.000000,0.000732,-0.001465,-0.000197,0.234080,-0.000059,182.719392,-10.093350,0,0,0,0
133.825546,-0.114599,-0.003354,-0.034797,-0.005645,-0.000023,0.037326,0.000000,0.000732,-0.001465,-0.000197,0.234080,-0.000059,182.719392,-10.093350,0,0,0,0
133.835327,-0.114607,-0.003354,-0.034797,-0.005645,-0.000023,0.037326,0.000000,0.000732,-0.001465,-0.000197,0.234080,-0.000059,480.602678,11.107432,0,0,0,0
133.845093,-0.114615,-0.003354,-0.034797,-0.005645,-0.000023,0.037326,0.000000,0.000732,-0.001465,-0.000197,0.234080,-0.000059,480.602678,11.107432,0,0,0,0
133.854858,-0.114624,-0.003354,-0.034797,-0.005645,-0.000023,0.037326,0.000000,0.000732,-0.001465,-0.000197,0.234080,-0.000059,480.602678,11.107432,0,0,0,0
133.864639,-0.114632,-0.003355,-0.034797,-0.005645,-0.000023,0.037326,0.000000,0.000732,-0.001465,-0.000197,0.234080,-0.000059,480.602678,11.107432,0,0,0,0
133.874405,-0.114640,-0.003355,-0.034797,-0.005645,-0.000023,0.037326,0.000000,0.000732,-0.001465,-0.000197,0.234080,-0.000059,480.602678,11.107432,0,0,0,0
133.884171,-0.114649,-0.003355,-0.034797,-0.005645,-0.000023,0.037326,0.000000,0.000732,-0.001465,-0.000197,0.234080,-0.000059,480.602678,11.107432,0,0,0,0
133.893936,-0.114657,-0.003356,-0.034797,-0.005645,-0.000023,0.037326,0.000000,0.000732,-0.001465,-0.000197,0.234080,-0.000059,480.602678,11.107432,0,0,0,0
133.903717,-0.114666,-0.003356,-0.034797,-0.005645,-0.000023,0.037326,0.000000,0.000732,-0.001465,-0.000197,0.234080,-0.000059,480.602678,11.107432,0,0,0,0
133.913483,-0.114674,-0.003356,-0.034797,-0.005645,-0.000023,0.037326,0.000000,0.000732,-0.001465,-0.000197,0.234080,-0.000059,480.602678,11.107432,0,0,0,0
133.923248,-0.114682,-0.003356,-0.034797,-0.005645,-0.000023,0.037326,0.000000,0.000732,-0.001465,-0.000197,0.234080,-0.000059,480.602678,11.107432,0,0,0,0
133.933029,-0.114691,-0.003357,-0.034797,-0.005645,-0.000023,0.037326,0.000000,0.000732,-0.001465,-0.000197,0.234080,-0.000059,480.602678,11.107432,0,0,0,0
133.942795,-0.114699,-0.003357,-0.034797,-0.005645,-0.000023,0.037326,0.000000,0.000732,-0.001465,-0.000197,0.234080,-0.000059,480.602678,11.107432,0,0,0,0
133.952560,-0.114707,-0.003357,-0.034797,-0.005645,-0.000023,0.037326,0.000000,0.000732,-0.001465,-0.000197,0.234080,-0.000059,480.602678,11.107432,0,0,0,0
133.962326,-0.114716,-0.003357,-0.034797,-0.005645,-0.000023,0.037326,0.000000,0.000732,-0.001465,-0.000197,0.234080,-0.000059,480.602678,11.107432,0,0,0,0
133.972107,-0.114724,-0.003358,-0.034797,-0.005645,-0.000023,0.037326,0.000000,0.000732,-0.001465,-0.000197,0.234080,-0.000059,877.424501,8.051485,0,0,0,0
133.981873,-0.114733,-0.003358,-0.034797,-0.005645,-0.000023,0.037326,0.000000,0.000732,-0.001465,-0.000197,0.234080,-0.000059,877.424501,8.051485,0,0,0,0
133.991638,-0.114741,-0.003358,-0.034797,-0.005645,-0.000023,0.037326,0.000000,0.000732,-0.001465,-0.000197,0.234080,-0.000059,877.424501,8.051485,0,0,0,0
134.001419,-0.114749,-0.003358,-0.034797,-0.005645,-0.000023,0.037326,0.000000,0.000732,-0.001465,-0.000197,0.234080,-0.000059,877.424501,8.051485,0,0,0,0
134.011185,-0.114758,-0.003359,-0.034797,-0.005645,-0.000023,0.037326,0.000000,0.000732,-0.001465,-0.000197,0.234080,-0.000059,877.424501,8.051485,0,0,0,0
134.020950,-0.114766,-0.003359,-0.034797,-0.005645,-0.000023,0.037326,0.000000,0.000732,-0.001465,-0.000197,0.234080,-0.000059,877.424501,8.051485,0,0,0,0
134.030716,-0.114774,-0.003359,-0.034797,-0.005645,-0.000023,0.037326,0.000000,0.000732,-0.001465,-0.000197,0.234080,-0.000059,877.424501,8.051485,0,0,0,0
134.040497,-0.114783,-0.003360,-0.034797,-0.005645,-0.000023,0.037326,0.000000,0.000732,-0.001465,-0.000197,0.234080,-0.000059,506.758614,8.481409,0,0,0,0
134.050262,-0.114791,-0.003360,-0.034797,-0.005645,-0.000023,0.037326,0.000000,0.000732,-0.001709,-0.000197,0.234080,-0.000059,506.758614,8.481409,0,0,0,0
134.060028,-0.114799,-0.003360,-0.034797,-0.005645,-0.000023,0.037326,0.000000,0.000732,-0.001709,-0.000197,0.234080,-0.000059,506.758614,8.481409,0,0,0,0
134.069809,-0.114808,-0.003360,-0.034797,-0.005645,-0.000023,0.037326,0.000000,0.000732,-0.001709,-0.000197,0.234080,-0.000059,506.758614,8.481409,0,0,0,0
134.079575,-0.114816,-0.003361,-0.034797,-0.005645,-0.000023,0.037326,0.000000,0.000732,-0.001709,-0.000197,0.234080,-0.000059,506.758614,8.481409,0,0,0,0
134.089340,-0.114825,-0.003361,-0.034797,-0.005645,-0.000023,0.037326,0.000000,0.000732,-0.001709,-0.000197,0.234080,-0.000059,506.758614,8.481409,0,0,0,0
134.099106,-0.114833,-0.003361,-0.034797,-0.005645,-0.000023,0.037326,0.000000,0.000732,-0.001709,-0.000197,0.234080,-0.000059,506.758614,8.481409,0,0,0,0
134.108887,-0.114841,-0.003361,-0.034797,-0.005645,-0.000023,0.037326,0.000000,0.000732,-0.001709,-0.000197,0.234080,-0.000059,506.758614,8.481409,0,0,0,0
134.118652,-0.114850,-0.003362,-0.034797,-0.005645,-0.000023,0.037326,0.000000,0.000732,-0.001709,-0.000197,0.234080,-0.000059,506.758614,8.481409,0,0,0,0
134.128418,-0.114858,-0.003362,-0.034797,-0.005645,-0.000023,0.037326,0.000000,0.000732,-0.001709,-0.000197,0.234080,-0.000059,506.758614,8.481409,0,0,0,0
134.138199,-0.114866,-0.003362,-0.034797,-0.005645,-0.000023,0.037326,0.000000,0.000732,-0.001709,-0.000197,0.234080,-0.000059,506.758614,8.481409,0,0,0,0
134.147964,-0.114875,-0.003362,-0.034797,-0.005645,-0.000023,0.037326,0.000000,0.000732,-0.001709,-0.000197,0.234080,-0.000059,506.758614,8.481409,0,0,0,0
134.157730,-0.114883,-0.003363,-0.034797,-0.005645,-0.000023,0.037326,0.000000,0.000732,-0.001709,-0.000197,0.234080,-0.000059,506.758614,8.481409,0,0,0,0
134.167496,-0.114892,-0.003363,-0.034797,-0.005645,-0.000023,0.037326,0.000000,0.000732,-0.001709,-0.000197,0.234080,-0.000059,506.758614,8.481409,0,0,0,0
134.177277,-0.114900,-0.003363,-0.034797,-0.005645,-0.000023,0.037326,0.000000,0.000732,-0.001709,-0.000197,0.234080,-0.000059,757.513834,2.952806,0,0,0,0
134.187042,-0.114908,-0.003364,-0.034797,-0.005645,-0.000023,0.037326,0.000000,0.000732,-0.001709,-0.000197,0.234080,-0.000059,757.513834,2.952806,0,0,0,0
134.196808,-0.114917,-0.003364,-0.034797,-0.005645,-0.000023,0.037326,0.000000,0.000732,-0.001709,-0.000197,0.234080,-0.000059,757.513834,2.952806,0,0,0,0
134.206589,-0.114925,-0.003364,-0.034797,-0.005645,-0.000023,0.037326,0.000000,0.000732,-0.001709,-0.000197,0.234080,-0.000059,757.513834,2.952806,0,0,0,0
134.216354,-0.114933,-0.003364,-0.034797,-0.005645,-0.000023,0.037326,0.000000,0.000732,-0.001709,-0.000197,0.234080,-0.000059,757.513834,2.952806,0,0,0,0
134.226120,-0.114942,-0.003365,-0.034797,-0.005645,-0.000023,0.037326,0.000000,0.000732,-0.001709,-0.000197,0.234080,-0.000059,757.513834,2.952806,0,0,0,0
134.235886,-0.114950,-0.003365,-0.034797,-0.005645,-0.000023,0.037326,0.000000,0.000732,-0.001709,-0.000197,0.234080,-0.000059,757.513834,2.952806,0,0,0,0
134.245667,-0.114959,-0.003365,-0.034797,-0.005645,-0.000023,0.037326,0.000000,0.000732,-0.001709,-0.000197,0.234080,-0.000059,626.233507,-16.667374,0,0,0,0
134.255432,-0.114967,-0.003365,-0.034797,-0.005645,-0.000023,0.037326,0.000000,0.000732,-0.001709,-0.000197,0.234080,-0.000059,626.233507,-16.667374,0,0,0,0
134.265198,-0.114975,-0.003366,-0.034797,-0.005645,-0.000023,0.037326,0.000000,0.000732,-0.001709,-0.000197,0.234080,-0.000059,626.233507,-16.667374,0,0,0,0
134.274979,-0.114984,-0.003366,-0.034797,-0.005645,-0.000023,0.037326,0.000000,0.000732,-0.001709,-0.000197,0.234080,-0.000059,626.233507,-16.667374,0,0,0,0
134.284744,-0.114992,-0.003366,-0.034797,-0.005645,-0.000023,0.037326,0.000000,0.000732,-0.001709,-0.000197,0.234080,-0.000059,626.233507,-16.667374,0,0,0,0
134.294510,-0.115000,-0.003366,-0.034797,-0.005645,-0.000023,0.037326,0.000000,0.000732,-0.001709,-0.000197,0.234080,-0.000059,626.233507,-16.667374,0,0,0,0
134.304276,-0.115009,-0.003367,-0.034797,-0.005645,-0.000023,0.037326,0.000000,0.000732,-0.001709,-0.000197,0.234080,-0.000059,626.233507,-16.667374,0,0,0,0
134.314056,-0.115017,-0.003367,-0.034797,-0.005645,-0.000023,0.037326,0.000000,0.000732,-0.001709,-0.000197,0.234080,-0.000059,626.233507,-16.667374,0,0,0,0
134.323822,-0.115026,-0.003367,-0.034797,-0.005645,-0.000023,0.037326,0.000000,0.000732,-0.001709,-0.000197,0.234080,-0.000059,626.233507,-16.667374,0,0,0,0
134.333588,-0.115034,-0.003368,-0.034797,-0.005645,-0.000023,0.037326,0.000000,0.000732,-0.001709,-0.000197,0.234080,-0.000059,626.233507,-16.667374,0,0,0,0
134.343369,-0.115042,-0.003368,-0.034797,-0.005645,-0.000023,0.037326,0.000000,0.000732,-0.001709,-0.000197,0.234080,-0.000059,626.233507,-16.667374,0,0,0,0
134.353134,-0.115051,-0.003368,-0.034797,-0.005645,-0.000023,0.037326,0.000000,0.000732,-0.001709,-0.000197,0.234080,-0.000059,626.233507,-16.667374,0,0,0,0
134.362900,-0.115059,-0.003368,-0.034797,-0.005645,-0.000023,0.037326,0.000000,0.000732,-0.001709,-0.000197,0.234080,-0.000059,626.233507,-16.667374,0,0,0,0
134.372665,-0.115067,-0.003369,-0.034797,-0.005645,-0.000023,0.037326,0.000000,0.000732,-0.001709,-0.000197,0.234080,-0.000059,626.233507,-16.667374,0,0,0,0
134.382446,-0.115076,-0.003369,-0.034797,-0.005645,-0.000023,0.037326,0.000000,0.000732,-0.001709,-0.000197,0.234080,-0.000059,985.875531,13.207328,0,0,0,0
134.392212,-0.115084,-0.003369,-0.034797,-0.005645,-0.000023,0.037326,0.000000,0.000732,-0.001709,-0.000197,0.234080,-0.000059,985.875531,13.207328,0,0,0,0
134.401978,-0.115093,-0.003369,-0.034797,-0.005645,-0.000023,0.037326,0.000000,0.000732,-0.001709,-0.000197,0.234080,-0.000059,985.875531,13.207328,0,0,0,0
134.411758,-0.115101,-0.003370,-0.034797,-0.005645,-0.000023,0.037326,0.000000,0.000732,-0.001709,-0.000197,0.234080,-0.000059,985.875531,13.207328,0,0,0,0
134.421524,-0.115109,-0.003370,-0.034797,-0.005645,-0.000023,0.037326,0.000000,0.000732,-0.001709,-0.000197,0.234080,-0.000059,985.875531,13.207328,0,0,0,0
134.431290,-0.115118,-0.003370,-0.034797,-0.005645,-0.000023,0.037326,0.000000,0.000732,-0.001709,-0.000197,0.234080,-0.000059,985.875531,13.207328,0,0,0,0
134.441055,-0.115126,-0.003370,-0.034797,-0.005645,-0.000023,0.037326,0.000000,0.000732,-0.001709,-0.000197,0.234080,-0.000059,146.651057,9.222863,0,0,0,0
134.450836,-0.115134,-0.003371,-0.034797,-0.005645,-0.000023,0.037326,0.000000,0.000732,-0.001709,-0.000197,0.234080,-0.000059,146.651057,9.222863,0,0,0,0
134.460602,-0.115143,-0.003371,-0.034797,-0.005645,-0.000023,0.037326,0.000000,0.000732,-0.001709,-0.000197,0.234080,-0.000059,146.651057,9.222863,0,0,0,0
134.470367,-0.115151,-0.003371,-0.034797,-0.005645,-0.000023,0.037326,0.000000,0.000732,-0.001709,-0.000197,0.234080,-0.000059,146.651057,9.222863,0,0,0,0
134.480148,-0.115160,-0.003372,-0.034797,-0.005645,-0.000023,0.037326,0.000000,0.000732,-0.001709,-0.000197,0.234080,-0.000059,146.651057,9.222863,0,0,0,0
134.489914,-0.115168,-0.003372,-0.034797,-0.005645,-0.000023,0.037326,0.000000,0.000732,-0.001709,-0.000197,0.234080,-0.000059,146.651057,9.222863,0,0,0,0
134.499680,-0.115176,-0.003372,-0.034797,-0.005645,-0.000023,0.037326,0.000000,0.000732,-0.001709,-0.000197,0.234080,-0.000059,146.651057,9.222863,0,0,0,0
134.509445,-0.115185,-0.003372,-0.034797,-0.005645,-0.000023,0.037326,0.000000,0.000732,-0.001709,-0.000197,0.234080,-0.000059,146.651057,9.222863,0,0,0,0
134.519226,-0.115193,-0.003373,-0.034797,-0.005645,-0.000023,0.037326,0.000000,0.000732,-0.001709,-0.000197,0.234080,-0.000059,146.651057,9.222863,0,0,0,0
134.528992,-0.115201,-0.003373,-0.034797,-0.005645,-0.000023,0.037326,0.000000,0.000732,-0.001709,-0.000197,0.234080,-0.000059,146.651057,9.222863,0,0,0,0
134.538757,-0.115210,-0.003373,-0.034797,-0.005645,-0.000023,0.037326,0.000000,0.000732,-0.001709,-0.000197,0.234080,-0.000059,146.651057,9.222863,0,0,0,0
134.548538,-0.115218,-0.003373,-0.034797,-0.005645,-0.000023,0.037326,0.000000,0.000732,-0.001709,-0.000197,0.234080,-0.000059,146.651057,9.222863,0,0,0,0
134.558304,-0.115227,-0.003374,-0.034797,-0.005645,-0.000023,0.037326,0.000000,0.000732,-0.001709,-0.000197,0.234080,-0.000059,146.651057,9.222863,0,0,0,0
134.568069,-0.115235,-0.003374,-0.034797,-0.005645,-0.000023,0.037326,0.000000,0.000732,-0.001709,-0.000197,0.234080,-0.000059,146.651057,9.222863,0,0,0,0
134.577835,-0.115243,-0.003374,-0.034797,-0.005645,-0.000023,0.037326,0.000000,0.000732,-0.001709,-0.000197,0.234080,-0.000059,731.914472,4.275365,0,0,0,0
134.587616,-0.115252,-0.003374,-0.034797,-0.005645,-0.000023,0.037326,0.000000,0.000732,-0.001709,-0.000197,0.234080,-0.000059,731.914472,4.275365,0,0,0,0
134.597382,-0.115260,-0.003375,-0.034797,-0.005645,-0.000023,0.037326,0.000000,0.000732,-0.001709,-0.000197,0.234080,-0.000059,731.914472,4.275365,0,0,0,0
134.607147,-0.115268,-0.003375,-0.034797,-0.005645,-0.000023,0.037326,0.000000,0.000732,-0.001709,-0.000197,0.234080,-0.000059,731.914472,4.275365,0,0,0,0
134.616928,-0.115277,-0.003375,-0.034797,-0.005645,-0.000023,0.037326,0.000000,0.000732,-0.001709,-0.000197,0.234080,-0.000059,731.914472,4.275365,0,0,0,0
134.626694,-0.115285,-0.003376,-0.034797,-0.005645,-0.000023,0.037326,0.000000,0.000732,-0.001709,-0.000197,0.234080,-0.000059,731.914472,4.275365,0,0,0,0
134.636459,-0.115294,-0.003376,-0.034797,-0.005645,-0.000023,0.037326,0.000000,0.000732,-0.001709,-0.000197,0.234080,-0.000059,731.914472,4.275365,0,0,0,0
134.646225,-0.115302,-0.003376,-0.034797,-0.005645,-0.000023,0.037326,0.000000,0.000732,-0.001709,-0.000197,0.234080,-0.000059,187.561452,-12.602077,0,0,0,0
134.656006,-0.115310,-0.003376,-0.034797,-0.005645,-0.000023,0.037326,0.000000,0.000732,-0.001709,-0.000197,0.234080,-0.000059,187.561452,-12.602077,0,0,0,0
134.665771,-0.115319,-0.003377,-0.034797,-0.005645,-0.000023,0.037326,0.000000,0.000732,-0.001709,-0.000197,0.234080,-0.000059,187.561452,-12.602077,0,0,0,0
134.675537,-0.115327,-0.003377,-0.034797,-0.005645,-0.000023,0.037326,0.000000,0.000732,-0.001709,-0.000197,0.234080,-0.000059,187.561452,-12.602077,0,0,0,0
134.685318,-0.115335,-0.003377,-0.034797,-0.005645,-0.000023,0.037326,0.000000,0.000732,-0.001709,-0.000197,0.234080,-0.000059,187.561452,-12.602077,0,0,0,0
134.695084,-0.115344,-0.003377,-0.034797,-0.005645,-0.000023,0.037326,0.000000,0.000732,-0.001709,-0.000197,0.234080,-0.000059,187.561452,-12.602077,0,0,0,0
134.704849,-0.115352,-0.003378,-0.034797,-0.005645,-0.000023,0.037326,0.000000,0.000732,-0.001709,-0.000197,0.234080,-0.000059,187.561452,-12.602077,0,0,0,0
134.714615,-0.115361,-0.003378,-0.034797,-0.005645,-0.000023,0.037326,0.000000,0.000732,-0.001709,-0.000197,0.234080,-0.000059,187.561452,-12.602077,0,0,0,0
134.724396,-0.115369,-0.003378,-0.034797,-0.005645,-0.000023,0.037326,0.000000,0.000732,-0.001709,-0.000197,0.234080,-0.000059,187.561452,-12.602077,0,0,0,0
134.734161,-0.115377,-0.003378,-0.034797,-0.005645,-0.000023,0.037326,0.000000,0.000732,-0.001709,-0.000197,0.234080,-0.000059,187.561452,-12.602077,0,0,0,0
134.743927,-0.115386,-0.003379,-0.034797,-0.005645,-0.000023,0.037326,0.000000,0.000732,-0.001709,-0.000197,0.234080,-0.000059,187.561452,-12.602077,0,0,0,0
134.753708,-0.115394,-0.003379,-0.034797,-0.005645,-0.000023,0.037326,0.000000,0.000732,-0.001709,-0.000197,0.234080,-0.000059,187.561452,-12.602077,0,0,0,0
134.763474,-0.115402,-0.003379,-0.034797,-0.005645,-0.000023,0.037326,0.000000,0.000732,-0.001709,-0.000197,0.234080,-0.000059,187.561452,-12.602077,0,0,0,0
134.773239,-0.115411,-0.003380,-0.034797,-0.005645,-0.000023,0.037326,0.000000,0.000732,-0.001709,-0.000197,0.234080,-0.000059,178.403682,5.923823,0,0,0,0
134.783005,-0.115419,-0.003380,-0.034797,-0.005645,-0.000023,0.037326,0.000000,0.000732,-0.001709,-0.000197,0.234080,-0.000059,178.403682,5.923823,0,0,0,0
134.792786,-0.115428,-0.003380,-0.034797,-0.005645,-0.000023,0.037326,0.000000,0.000732,-0.001709,-0.000197,0.234080,-0.000059,178.403682,5.923823,0,0,0,0
134.802551,-0.115436,-0.003380,-0.034797,-0.005645,-0.000023,0.037326,0.000000,0.000732,-0.001709,-0.000197,0.234080,-0.000059,178.403682,5.923823,0,0,0,0
134.812317,-0.115444,-0.003381,-0.034797,-0.005645,-0.000023,0.037326,0.000000,0.000732,-0.001709,-0.000197,0.234080,-0.000059,178.403682,5.923823,0,0,0,0
134.822098,-0.115453,-0.003381,-0.034797,-0.005645,-0.000023,0.037326,0.000000,0.000732,-0.001709,-0.000197,0.234080,-0.000059,178.403682,5.923823,0,0,0,0
134.831863,-0.115461,-0.003381,-0.034797,-0.005645,-0.000023,0.037326,0.000000,0.000732,-0.001709,-0.000197,0.234080,-0.000059,178.403682,5.923823,0,0,0,0
134.841629,-0.115469,-0.003381,-0.034797,-0.005645,-0.000023,0.037326,0.000000,0.000732,-0.001709,-0.000197,0.234080,-0.000059,726.874191,15.765698,0,0,0,0
134.851395,-0.115478,-0.003382,-0.034797,-0.005645,-0.000023,0.037326,0.000000,0.000732,-0.001709,-0.000197,0.234080,-0.000059,726.874191,15.765698,0,0,0,0
134.861176,-0.115486,-0.003382,-0.034797,-0.005645,-0.000023,0.037326,0.000000,0.000732,-0.001709,-0.000197,0.234080,-0.000059,726.874191,15.765698,0,0,0,0
134.870941,-0.115495,-0.003382,-0.034797,-0.005645,-0.000023,0.037326,0.000000,0.000732,-0.001709,-0.000197,0.234080,-0.000059,726.874191,15.765698,0,0,0,0
134.880707,-0.115503,-0.003382,-0.034797,-0.005645,-0.000023,0.037326,0.000000,0.000732,-0.001709,-0.000197,0.234080,-0.000059,726.874191,15.765698,0,0,0,0
134.890488,-0.115511,-0.003383,-0.034797,-0.005645,-0.000023,0.037326,0.000000,0.000732,-0.001709,-0.000197,0.234080,-0.000059,726.874191,15.765698,0,0,0,0
134.900253,-0.115520,-0.003383,-0.034797,-0.005645,-0.000023,0.037326,0.000000,0.000732,-0.001709,-0.000197,0.234080,-0.000059,726.874191,15.765698,0,0,0,0
134.910019,-0.115528,-0.003383,-0.034797,-0.005645,-0.000023,0.037326,0.000000,0.000732,-0.001709,-0.000197,0.234080,-0.000059,726.874191,15.765698,0,0,0,0
134.919785,-0.115536,-0.003384,-0.034797,-0.005645,-0.000023,0.037326,0.000000,0.000732,-0.001709,-0.000197,0.234080,-0.000059,726.874191,15.765698,0,0,0,0
134.929565,-0.115545,-0.003384,-0.034797,-0.005645,-0.000023,0.037326,0.000000,0.000732,-0.001709,-0.000197,0.234080,-0.000059,726.874191,15.765698,0,0,0,0
134.939331,-0.115553,-0.003384,-0.034797,-0.005645,-0.000023,0.037326,0.000000,0.000732,-0.001709,-0.000197,0.234080,-0.000059,726.874191,15.765698,0,0,0,0
134.949097,-0.115562,-0.003384,-0.034797,-0.005645,-0.000023,0.037326,0.000000,0.000732,-0.001709,-0.000197,0.234080,-0.000059,726.874191,15.765698,0,0,0,0
134.958878,-0.115570,-0.003385,-0.034797,-0.005645,-0.000023,0.037326,0.000000,0.000732,-0.001709,-0.000197,0.234080,-0.000059,726.874191,15.765698,0,0,0,0
134.968643,-0.115578,-0.003385,-0.034797,-0.005645,-0.000023,0.037326,0.000000,0.000732,-0.001709,-0.000197,0.234080,-0.000059,726.874191,15.765698,0,0,0,0
134.978409,-0.115587,-0.003385,-0.034797,-0.005645,-0.000023,0.037326,0.000000,0.000732,-0.001709,-0.000197,0.234080,-0.000059,185.753211,1.168638,0,0,0,0
134.988174,-0.115595,-0.003385,-0.034797,-0.005645,-0.000023,0.037326,0.000000,0.000732,-0.001709,-0.000197,0.234080,-0.000059,185.753211,1.168638,0,0,0,0
134.997955,-0.115603,-0.003386,-0.034797,-0.005645,-0.000023,0.037326,0.000000,0.000732,-0.001709,-0.000197,0.234080,-0.000059,185.753211,1.168638,0,0,0,0
135.007721,-0.115612,-0.003386,-0.034797,-0.005645,-0.000023,0.037326,0.000000,0.000732,-0.001709,-0.000197,0.234080,-0.000059,185.753211,1.168638,0,0,0,0
135.017487,-0.115620,-0.003386,-0.034797,-0.005645,-0.000023,0.037326,0.000000,0.000732,-0.001709,-0.000197,0.234080,-0.000059,185.753211,1.168638,0,0,0,0
135.027267,-0.115629,-0.003386,-0.034797,-0.005645,-0.000023,0.037326,0.000000,0.000732,-0.001709,-0.000197,0.234080,-0.000059,185.753211,1.168638,0,0,0,0
135.037033,-0.115637,-0.003387,-0.034797,-0.005645,-0.000023,0.037326,0.000000,0.000732,-0.001709,-0.000197,0.234080,-0.000059,185.753211,1.168638,0,0,0,0
135.046799,-0.115645,-0.003387,-0.034797,-0.005645,-0.000023,0.037326,0.000000,0.000732,-0.001709,-0.000197,0.234080,-0.000059,274.834336,-10.809224,0,0,0,0
135.056580,-0.115654,-0.003387,-0.034797,-0.005645,-0.000023,0.037326,0.000000,0.000732,-0.001709,-0.000197,0.234080,-0.000059,274.834336,-10.809224,0,0,0,0
135.066345,-0.115662,-0.003387,-0.034797,-0.005645,-0.000023,0.037326,0.000000,0.000732,-0.001709,-0.000197,0.234080,-0.000059,274.834336,-10.809224,0,0,0,0
135.076111,-0.115670,-0.003388,-0.034797,-0.005645,-0.000023,0.037326,0.000000,0.000732,-0.001709,-0.000197,0.234080,-0.000059,274.834336,-10.809224,0,0,0,0
135.085876,-0.115679,-0.003388,-0.034797,-0.005645,-0.000023,0.037326,0.000000,0.000732,-0.001709,-0.000197,0.234080,-0.000059,274.834336,-10.809224,0,0,0,0
135.095657,-0.115687,-0.003388,-0.034797,-0.005645,-0.000023,0.037326,0.000000,0.000732,-0.001709,-0.000197,0.234080,-0.000059,274.834336,-10.809224,0,0,0,0
135.105423,-0.115695,-0.003389,-0.034797,-0.005645,-0.000023,0.037326,0.000000,0.000732,-0.001709,-0.000197,0.234080,-0.000059,274.834336,-10.809224,0,0,0,0
135.115189,-0.115704,-0.003389,-0.034797,-0.005645,-0.000023,0.037326,0.000000,0.000732,-0.001709,-0.000197,0.234080,-0.000059,274.834336,-10.809224,0,0,0,0
135.124969,-0.115712,-0.003389,-0.034797,-0.005645,-0.000023,0.037326,0.000000,0.000732,-0.001709,-0.000197,0.234080,-0.000059,274.834336,-10.809224,0,0,0,0
135.134735,-0.115721,-0.003389,-0.034797,-0.005645,-0.000023,0.037326,0.000000,0.000732,-0.001709,-0.000197,0.234080,-0.000059,274.834336,-10.809224,0,0,0,0
135.144501,-0.115729,-0.003390,-0.034797,-0.005645,-0.000023,0.037326,0.000000,0.000732,-0.001709,-0.000197,0.234080,-0.000059,274.834336,-10.809224,0,0,0,0
135.154266,-0.115737,-0.003390,-0.034797,-0.005645,-0.000023,0.037326,0.000000,0.000732,-0.001709,-0.000197,0.234080,-0.000059,274.834336,-10.809224,0,0,0,0
135.164047,-0.115746,-0.003390,-0.034797,-0.005645,-0.000023,0.037326,0.000000,0.000732,-0.001709,-0.000197,0.234080,-0.000059,274.834336,-10.809224,0,0,0,0
135.173813,-0.115754,-0.003390,-0.034797,-0.005645,-0.000023,0.037326,0.000000,0.000732,-0.001709,-0.000197,0.234080,-0.000059,451.705657,-14.135716,0,0,0,0
135.183578,-0.115762,-0.003391,-0.034797,-0.005645,-0.000023,0.037326,0.000000,0.000732,-0.001709,-0.000197,0.234080,-0.000059,451.705657,-14.135716,0,0,0,0
135.193359,-0.115771,-0.003391,-0.034797,-0.005645,-0.000023,0.037326,0.000000,0.000732,-0.001709,-0.000197,0.234080,-0.000059,451.705657,-14.135716,0,0,0,0
135.203125,-0.115779,-0.003391,-0.034797,-0.005645,-0.000023,0.037326,0.000000,0.000732,-0.001709,-0.000197,0.234080,-0.000059,451.705657,-14.135716,0,0,0,0
135.212891,-0.115788,-0.003391,-0.034797,-0.005645,-0.000023,0.037326,0.000000,0.000732,-0.001709,-0.000197,0.234080,-0.000059,451.705657,-14.135716,0,0,0,0
135.222656,-0.115796,-0.003392,-0.034797,-0.005645,-0.000023,0.037326,0.000000,0.000732,-0.001709,-0.000197,0.234080,-0.000059,451.705657,-14.135716,0,0,0,0
135.232437,-0.115804,-0.003392,-0.034797,-0.005645,-0.000023,0.037326,0.000000,0.000732,-0.001709,-0.000197,0.234080,-0.000059,451.705657,-14.135716,0,0,0,0
135.242203,-0.115813,-0.003392,-0.034797,-0.005645,-0.000023,0.037326,0.000000,0.000732,-0.001709,-0.000197,0.234080,-0.000059,788.946796,28.750822,0,0,0,0
135.251968,-0.115821,-0.003393,-0.034797,-0.005645,-0.000023,0.037326,0.000000,0.000732,-0.001709,-0.000197,0.234080,-0.000059,788.946796,28.750822,0,0,0,0
135.261749,-0.115829,-0.003393,-0.034797,-0.005645,-0.000023,0.037326,0.000000,0.000732,-0.001709,-0.000197,0.234080,-0.000059,788.946796,28.750822,0,0,0,0
135.271515,-0.115838,-0.003393,-0.034797,-0.005645,-0.000023,0.037326,0.000000,0.000732,-0.001709,-0.000197,0.234080,-0.000059,788.946796,28.750822,0,0,0,0
135.281281,-0.115846,-0.003393,-0.034797,-0.005645,-0.000023,0.037326,0.000000,0.000732,-0.001709,-0.000197,0.234080,-0.000059,788.946796,28.750822,0,0,0,0
135.291046,-0.115855,-0.003394,-0.034797,-0.005645,-0.000023,0.037326,0.000000,0.000732,-0.001709,-0.000197,0.234080,-0.000059,788.946796,28.750822,0,0,0,0
135.300827,-0.115863,-0.003394,-0.034797,-0.005645,-0.000023,0.037326,0.000000,0.000732,-0.001709,-0.000197,0.234080,-0.000059,788.946796,28.750822,0,0,0,0
135.310593,-0.115871,-0.003394,-0.034797,-0.005645,-0.000023,0.037326,0.000000,0.000732,-0.001709,-0.000197,0.234080,-0.000059,788.946796,28.750822,0,0,0,0
135.320358,-0.115880,-0.003394,-0.034797,-0.005645,-0.000023,0.037326,0.000000,0.000732,-0.001709,-0.000197,0.234080,-0.000059,788.946796,28.750822,0,0,0,0
135.330139,-0.115888,-0.003395,-0.034797,-0.005645,-0.000023,0.037326,0.000000,0.000732,-0.001709,-0.000197,0.234080,-0.000059,788.946796,28.750822,0,0,0,0
135.339905,-0.115896,-0.003395,-0.034797,-0.005645,-0.000023,0.037326,0.000000,0.000732,-0.001709,-0.000197,0.234080,-0.000059,788.946796,28.750822,0,0,0,0
135.349670,-0.115905,-0.003395,-0.034797,-0.005645,-0.000023,0.037326,0.000000,0.000732,-0.001709,-0.000197,0.234080,-0.000059,788.946796,28.750822,0,0,0,0
135.359436,-0.115913,-0.003395,-0.034797,-0.005645,-0.000023,0.037326,0.000000,0.000732,-0.001709,-0.000197,0.234080,-0.000059,788.946796,28.750822,0,0,0,0
135.369217,-0.115922,-0.003396,-0.034797,-0.005645,-0.000023,0.037326,0.000000,0.000732,-0.001709,-0.000197,0.234080,-0.000059,788.946796,28.750822,0,0,0,0
135.378983,-0.115930,-0.003396,-0.034797,-0.005645,-0.000023,0.037326,0.000000,0.000732,-0.001709,-0.000197,0.234080,-0.000059,394.370563,-46.572681,0,0,0,0
135.388748,-0.115938,-0.003396,-0.034797,-0.005645,-0.000023,0.037326,0.000000,0.000732,-0.001709,-0.000197,0.234080,-0.000059,394.370563,-46.572681,0,0,0,0
135.398529,-0.115947,-0.003397,-0.034797,-0.005645,-0.000023,0.037326,0.000000,0.000732,-0.001709,-0.000197,0.234080,-0.000059,394.370563,-46.572681,0,0,0,0
135.408295,-0.115955,-0.003397,-0.034797,-0.005645,-0.000023,0.037326,0.000000,0.000732,-0.001709,-0.000197,0.234080,-0.000059,394.370563,-46.572681,0,0,0,0
135.418060,-0.115963,-0.003397,-0.034797,-0.005645,-0.000023,0.037326,0.000000,0.000732,-0.001709,-0.000197,0.234080,-0.000059,394.370563,-46.572681,0,0,0,0
135.427826,-0.115972,-0.003397,-0.034797,-0.005645,-0.000023,0.037326,0.000000,0.000732,-0.001709,-0.000197,0.234080,-0.000059,394.370563,-46.572681,0,0,0,0
